{"fecha":"15/07/2026 9:29:39","estaciones":[{"id":"4375","name":"Nº 10.935","address":"AVENIDA CASTILLA LA MANCHA, 26, ABENGIBRE","lat":39.211417,"lon":-1.539167,"tipoVenta":"P","horario":"L-D: 07:00-22:00","prices":{"GA":1.499,"G95E5":1.439,"GB":1.169}},{"id":"5122","name":"REPSOL","address":"CR CM-332, 46,4, ALATOZ","lat":39.100389,"lon":-1.346083,"tipoVenta":"P","horario":"L-D: 7:00-23:00","prices":{"GA":1.799,"G95E5":1.699,"GP":1.989}},{"id":"10765","name":"CARREFOUR","address":"AVENIDA 1º DE MAYO, S/N, ALBACETE","lat":38.985667,"lon":-1.8685,"tipoVenta":"P","horario":"L-S: 08:00-22:00; D: 09:00-21:00","prices":{"GA":1.589,"G95E5":1.549,"G98E5":1.719,"GP":1.629}},{"id":"12054","name":"BP ROMICA","address":"CALLE PRINCIPE DE ASTURIAS (POLÍGONO DE ROMICA), 5, ALBACETE","lat":39.054694,"lon":-1.832,"tipoVenta":"P","horario":"L-D: 06:00-22:00","prices":{"ADBLUE":1.095,"GA":1.689,"G95E5":1.599,"G98E5":1.739,"GP":1.779}},{"id":"13933","name":"PLENERGY","address":"CALLE FEDERICO GARCIA LORCA, 1, ALBACETE","lat":39.000861,"lon":-1.849833,"tipoVenta":"P","horario":"L-D: 24H","prices":{"GA":1.479,"G95E5":1.415}},{"id":"15000","name":"A&A","address":"AVENIDA ESCRITOR RODRIGO RUBIO, 3, ALBACETE","lat":39.006889,"lon":-1.885361,"tipoVenta":"P","horario":"L-S: 09:00-21:30","prices":{"GA":1.469,"G95E5":1.399,"GP":1.559,"GLP":0.969}},{"id":"16011","name":"PLENERGY","address":"CALLE CONSTANTINO ROMERO, S/N, ALBACETE","lat":39.005528,"lon":-1.884444,"tipoVenta":"P","horario":"L-D: 24H","prices":{"GA":1.489,"G95E5":1.425}},{"id":"14123","name":"MOEVE","address":"PASEO CUBA (LA), 36, ALBACETE","lat":39.005083,"lon":-1.859917,"tipoVenta":"P","horario":"L-D: 06:00-22:00","prices":{"GA":1.704,"G95E5":1.614,"G98E5":1.754,"GP":1.754}},{"id":"5195","name":"REPSOL","address":"CL PASEO DE LA CUBA, 15, ALBACETE","lat":38.999722,"lon":-1.854556,"tipoVenta":"P","horario":"L-D: 06:00-22:00","prices":{"GA":1.689,"G95E5":1.625,"G98E5":1.755,"GLP":1.109}},{"id":"4369","name":"PLENERGY","address":"AVENIDA MENÉNDEZ PIDAL, 58, ALBACETE","lat":39.003333,"lon":-1.864917,"tipoVenta":"P","horario":"L-D: 24H","prices":{"GA":1.469,"G95E5":1.405}},{"id":"5313","name":"CEPSA","address":"CALLE HERMANOS FALCÓ, 2, ALBACETE","lat":38.98925,"lon":-1.849028,"tipoVenta":"P","horario":"L-D: 06:30-22:30","prices":{"GA":1.729,"G95E5":1.639,"G98E5":1.769,"GP":1.789}},{"id":"5318","name":"PETROCAMP","address":"AVENIDA 1º DE MAYO, S/N, ALBACETE","lat":38.985194,"lon":-1.866806,"tipoVenta":"P","horario":"L-D: 07:00-23:00","prices":{"GA":1.459,"G95E5":1.369}},{"id":"5245","name":"REPSOL","address":"CARRETERA JAEN KM. 2, ALBACETE","lat":38.994667,"lon":-1.871722,"tipoVenta":"P","horario":"L-D: 24H","prices":{"ADBLUE":1.209,"GA":1.679,"G95E5":1.629,"G98E5":1.769}},{"id":"5208","name":"REPSOL","address":"CR N-301, 244, ALBACETE","lat":39.027778,"lon":-1.892972,"tipoVenta":"P","horario":"L-D: 24H","prices":{"GA":1.705,"G95E5":1.619,"G98E5":1.769}},{"id":"5222","name":"REPSOL","address":"CALLE CTRA. DE JAEN, 79, ALBACETE","lat":38.988111,"lon":-1.883694,"tipoVenta":"P","horario":"L-D: 06:00-23:00","prices":{"ADBLUE":1.199,"GA":1.679,"G95E5":1.629,"G98E5":1.769}},{"id":"4372","name":"LA PULGOSA","address":"CARRETERA M 3203 KM. 2,6, ALBACETE","lat":38.963972,"lon":-1.875944,"tipoVenta":"P","horario":"L-D: 06:00-22:00","prices":{"GA":1.688,"G95E5":1.598,"GP":1.895}},{"id":"5116","name":"REPSOL","address":"CR N-322, 337,8, ALBACETE","lat":38.925833,"lon":-2.031861,"tipoVenta":"P","horario":"L-D: 07:00-21:30","prices":{"GA":1.689,"G95E5":1.639,"G98E5":1.819,"GP":1.759}},{"id":"5191","name":"REPSOL","address":"PG CAMPOLLANO-P. 2-CT, S.N., ALBACETE","lat":39.012583,"lon":-1.874972,"tipoVenta":"P","horario":"L-V: 06:00-22:00; S: 07:30-15:30; D: 09:00-15:00","prices":{"GA":1.699,"G95E5":1.619,"G98E5":1.789,"GP":1.759}},{"id":"14377","name":"P347","address":"CARRETERA NACIONAL 322 PTO KM 347 KM. 347, ALBACETE","lat":38.965639,"lon":-1.9355,"tipoVenta":"P","horario":"L-S: 07:00-22:00","prices":{"GA":1.539}},{"id":"4416","name":"INPEALSA","address":"AVDA. DE ESPAÑA (PRÓX. A C/ SAN JUAN), S/N, ALBACETE","lat":38.982167,"lon":-1.853306,"tipoVenta":"P","horario":"L-D: 07:00-23:00","prices":{"GA":1.549,"G95E5":1.489}},{"id":"5289","name":"REPSOL","address":"CARRETERA N-322 KM. 359, ALBACETE","lat":39.033139,"lon":-1.845083,"tipoVenta":"P","horario":"L-V: 07:00-21:00; S-D: 09:00-14:00","prices":{"ADBLUE":1.499,"GA":1.659,"G95E5":1.599,"G98E5":1.769}},{"id":"4428","name":"FAMILY ENERGY","address":"CALLE ALCALDE CONANGLA (C.C. EROSKI), S/N, ALBACETE","lat":38.988972,"lon":-1.847361,"tipoVenta":"P","horario":"L-S: 07:00-23:00; D: 08:00-23:00","prices":{"GA":1.429,"G95E5":1.375,"G98E5":1.445,"GP":1.499}},{"id":"4415","name":"INPEALSA","address":"AVDA. DE LOS TOREROS, S/N, ALBACETE","lat":38.998222,"lon":-1.869889,"tipoVenta":"P","horario":"L-D: 07:00-23:00","prices":{"GA":1.549,"G95E5":1.489,"GP":1.599}},{"id":"5129","name":"INPEALSA","address":"CARRETERA NACIONAL 301 KM. 256, ALBACETE","lat":38.929389,"lon":-1.831639,"tipoVenta":"P","horario":"L-D: 24H","prices":{"ADBLUE":0.95,"GA":1.559,"G95E5":1.519}},{"id":"11048","name":"CEPSA","address":"CARRETERA N-322 KM. 349, ALBACETE","lat":38.970167,"lon":-1.919778,"tipoVenta":"P","horario":"L-V: 07:30-21:30; S-D: 08:00-21:00","prices":{"GA":1.719,"G95E5":1.639,"GP":1.859}},{"id":"5272","name":"REPSOL","address":"AVENIDA PRINCIPE, 2, SANTA ANA","lat":38.900944,"lon":-1.994028,"tipoVenta":"P","horario":"L-D: 08:00-16:00","prices":{"GA":1.655,"G95E5":1.575,"G98E5":1.745,"GB":1.479}},{"id":"4394","name":"LOZANO","address":"CM. 3203 km 14,1, SALOBRAL (EL)","lat":38.867556,"lon":-1.9205,"tipoVenta":"P","horario":"L-S: 07:00-14:00; D: 09:00-14:00","prices":{"GA":1.442,"G95E5":1.446,"GP":1.999,"GB":1.15}},{"id":"9546","name":"REPSOL. LOS ANGELES DE LA MANCHA, S.L.","address":"MADRID-CARTAGENA km 248,5, ALBACETE","lat":38.971722,"lon":-1.845278,"tipoVenta":"P","horario":"L-D: 06:00-22:00","prices":{"GA":1.685,"G95E5":1.615,"GP":1.795}},{"id":"11087","name":"REPSOL","address":"AUTOVIA A-31 KM. 69, ALBACETE","lat":39.031528,"lon":-1.891361,"tipoVenta":"P","horario":"L-D: 06:00-22:00","prices":{"GA":1.699,"G95E5":1.619,"G98E5":1.749,"GP":1.759,"GLP":1.119}},{"id":"4790","name":"INLOCOR S.L. \"CEPSA\"","address":"CARRETERA C-M 332 KM. 2,6, ALBACETE","lat":38.998111,"lon":-1.831611,"tipoVenta":"P","horario":"L-D: 06:00-23:30","prices":{"GA":1.699,"G95E5":1.629,"G98E5":1.759,"GP":1.779,"GB":1.679}},{"id":"12763","name":"FAST & GAS","address":"AVENIDA 3ª ESQUINA C/ F Nº3, 3, ALBACETE","lat":39.009417,"lon":-1.885694,"tipoVenta":"P","horario":"L-D: 24H","prices":{"GA":1.479,"G95E5":1.439}},{"id":"13930","name":"VALERO 24H","address":"AVENIDA POLIGONO CAMPOLLANO AVENIDA 0, 67, ALBACETE","lat":39.021583,"lon":-1.886556,"tipoVenta":"P","horario":"L-D: 24H","prices":{"GA":1.569,"G95E5":1.529}},{"id":"10129","name":"AVANZA OIL","address":"POLIGONO CAMPOLLANO C/.F, 13, ALBACETE","lat":39.012472,"lon":-1.889417,"tipoVenta":"P","horario":"L-D: 24H","prices":{"ADBLUE":0.999,"GA":1.499}},{"id":"13369","name":"GMOIL","address":"AVENIDA PRIMERA, S/N, ALBACETE","lat":39.022139,"lon":-1.882056,"tipoVenta":"P","horario":"L-D: 24H","prices":{"GA":1.459,"G95E5":1.399}},{"id":"14612","name":"NATURGY ES  GNV ALBACETE","address":"CALLE C/ AUTOVIA C/V AVD. SEXTA, S/N, ALBACETE","lat":39.029583,"lon":-1.888083,"tipoVenta":"P","horario":"L-D: 24H","prices":{"GNC":1.574,"GNL":1.361}},{"id":"4417","name":"INPEALSA","address":"POLIGONO CAMPOLLANO AVENIDA 1, 0, ALBACETE","lat":39.016389,"lon":-1.893944,"tipoVenta":"P","horario":"L-V: 06:00-22:00; S: 06:00-14:00","prices":{"ADBLUE":0.95,"GA":1.559,"G95E5":1.499,"GP":1.609}},{"id":"15547","name":"LA GAVIOTA GASOLINERA 24 HORA","address":"CALLE AUTOVIA, SN, ALBACETE","lat":39.029167,"lon":-1.888333,"tipoVenta":"P","horario":"L-D: 24H","prices":{"ADBLUE":0.899,"GA":1.509,"G95E5":1.459}},{"id":"12801","name":"ENERCOM CARBURANTES","address":"POLIGONO AVDA. 3ª, ESQUINA C/AUTOVIA, 69, ALBACETE","lat":39.018,"lon":-1.874333,"tipoVenta":"P","horario":"L-D: 24H","prices":{"ADBLUE":0.959,"GA":1.559,"G95E5":1.499,"G98E5":1.669,"GP":1.609}},{"id":"9601","name":"ALCAMPO","address":"SECTOR PARCELA T-3 LOCAL52, 14, ALBACETE","lat":39.009639,"lon":-1.878111,"tipoVenta":"P","horario":"L-D: 24H","prices":{"GA":1.429,"G95E5":1.369,"G98E5":1.445,"GP":1.489}},{"id":"13620","name":"CEPSA","address":"POLIGONO CAMPOLLANO, 55, ALBACETE","lat":39.015444,"lon":-1.871361,"tipoVenta":"P","horario":"L-V: 05:30-23:00; S: 06:30-22:30; D: 07:30-21:00","prices":{"GA":1.669,"G95E5":1.589,"G98E5":1.689,"GP":1.669}},{"id":"11297","name":"REPSOL Nº ESTACIÓN 97179","address":"MADRID-CARTAGENA km 248,5, ALBACETE","lat":38.971778,"lon":-1.845306,"tipoVenta":"P","horario":"L-V: 06:00-22:00","prices":{"GA":1.685,"G95E5":1.615,"G98E5":1.785,"GP":1.795}},{"id":"14287","name":"CEPSA","address":"POLIGONO Nº 71, PARCELA 678, PARAJE HONDO DE LA MORENA S/N, S/N, ALBACETE","lat":38.969361,"lon":-1.823639,"tipoVenta":"P","horario":"L-D: 06:30-22:30","prices":{"ADBLUE":0.999,"GA":1.729,"G95E5":1.639,"G98E5":1.769,"GP":1.789}},{"id":"14465","name":"AREA LOS LLANOS","address":"CARRETERA DE LAS PEÑAS KM 0+238 KM. 0,238, ALBACETE","lat":38.970778,"lon":-1.873194,"tipoVenta":"P","horario":"L-D: 07:00-22:00","prices":{"GA":1.589,"G95E5":1.499}},{"id":"5173","name":" MOEVE","address":"AUTOVIA A-30 KM. 239,4, ALBACETE","lat":39.059806,"lon":-1.93325,"tipoVenta":"P","horario":"L-D: 07:00-23:00","prices":{"GA":1.714,"G95E5":1.624,"G98E5":1.814,"GP":1.774}},{"id":"5174","name":"MOEVE","address":"AUTOVIA A-30 KM. 239,4, ALBACETE","lat":39.060528,"lon":-1.933056,"tipoVenta":"P","horario":"L-D: 24H","prices":{"GA":1.714,"G95E5":1.624,"GP":1.774}},{"id":"4794","name":"CEPSA","address":"CM-3203 km 41,9, ALCADOZO","lat":38.646833,"lon":-1.978917,"tipoVenta":"P","horario":"L-D: 07:00-21:30","prices":{"GA":1.779,"G95E5":1.695,"GP":1.859,"GB":1.689}},{"id":"8097","name":"EL JUCAR","address":"CARRETERA CM-3201 47,1 KM. 47,1, ALCALA DEL JUCAR","lat":39.203167,"lon":-1.433222,"tipoVenta":"P","horario":"L-D: 08:00-20:00","prices":{"GA":1.549,"G95E5":1.499}},{"id":"5241","name":"REPSOL","address":"CR N-322 276,5, ALCARAZ","lat":38.673111,"lon":-2.492222,"tipoVenta":"P","horario":"L-D: 07:00-22:00","prices":{"GA":1.649,"G95E5":1.609,"G98E5":1.749,"GP":1.729}},{"id":"5134","name":"REPSOL","address":"CARRETERA 322 KM. 302, JARDIN (EL)","lat":38.808528,"lon":-2.327639,"tipoVenta":"P","horario":"L-V: 07:00-17:00","prices":{"GA":1.655,"G95E5":1.575,"GP":1.765}},{"id":"14129","name":"GASOLINERA LOW COST PENADES","address":"CARRETERA N-430 BADAJOZ A VALENCIA KM. 594, ALMANSA","lat":38.850278,"lon":-1.027694,"tipoVenta":"P","horario":"L-D: 24H","prices":{"ADBLUE":0.739,"GA":1.549,"G95E5":1.509,"GB":1.359}},{"id":"4877","name":"REPSOL","address":"CL AVDA. DE AYORA, S.N. A, ALMANSA","lat":38.874583,"lon":-1.100528,"tipoVenta":"P","horario":"L-D: 06:00-22:00","prices":{"GA":1.665,"G95E5":1.629,"G98E5":1.799,"GP":1.775,"GLP":1.085}},{"id":"4788","name":"MOEVE","address":"AVENIDA CIRCUNVALACION, 26, ALMANSA","lat":38.859944,"lon":-1.08475,"tipoVenta":"P","horario":"L-D: 06:00-22:00","prices":{"ADBLUE":0.959,"GA":1.624,"G95E5":1.595,"GP":1.772}},{"id":"4383","name":"SHELL","address":"AUTOVIA A-31 KM. 140, ALMANSA","lat":38.875028,"lon":-1.17575,"tipoVenta":"P","horario":"L-D: 07:00-23:00","prices":{"GA":1.619,"G95E5":1.599,"G98E5":1.739,"GP":1.699}},{"id":"4799","name":"MOEVE","address":"AUTOVIA A-31 KM. 143,350, ALMANSA","lat":38.878278,"lon":-1.143722,"tipoVenta":"P","horario":"L-D: 06:00-22:00","prices":{"ADBLUE":0.999,"GA":1.624,"G95E5":1.595,"G98E5":1.656,"GP":1.772}},{"id":"14256","name":"QUALITY ALMANSA","address":"AVENIDA INFANTE DON JUAN MANUEL, 8, ALMANSA","lat":38.874556,"lon":-1.102944,"tipoVenta":"P","horario":"L-D: 24H","prices":{"ADBLUE":0.969,"GA":1.519,"G95E5":1.529}},{"id":"16144","name":"PLENERGY","address":"AVENIDA AYORA CON AVENIDA ADOLFO SUAREZ, S/N, ALMANSA","lat":38.878667,"lon":-1.100028,"tipoVenta":"P","horario":"L-D: 24H","prices":{"GA":1.509,"G95E5":1.515}},{"id":"4798","name":"BALLENOIL","address":"AVENIDA MADRID, 11, ALMANSA","lat":38.871556,"lon":-1.108,"tipoVenta":"P","horario":"L-D: 24H","prices":{"GA":1.499,"G95E5":1.515,"GP":1.509}},{"id":"4872","name":"BALLENOIL","address":"AVENIDA CIRCUNVALACION, 9, ALMANSA","lat":38.879167,"lon":-1.098889,"tipoVenta":"P","horario":"L-D: 24H","prices":{"GA":1.499,"G95E5":1.515,"GP":1.509}},{"id":"9035","name":"COOPERATIVA SANTA CRUZ DE ALPERA","address":"BONETE, S/Nº, ALPERA","lat":38.958875,"lon":-1.236552,"tipoVenta":"P","horario":"L-D: 24H","prices":{"GA":1.427,"G95E5":1.426,"GB":1.198}},{"id":"4396","name":"E.S. BALAZOTE S.L.","address":"N-322 km 326,2, BALAZOTE","lat":38.878028,"lon":-2.150639,"tipoVenta":"P","horario":"L-D: 06:00-22:00","prices":{"GA":1.669,"G95E5":1.609,"GB":1.39}},{"id":"4399","name":"E.S. BARRAX S.L.","address":"CALLE ALBACETE, 57, BARRAX","lat":39.043139,"lon":-2.195139,"tipoVenta":"P","horario":"L-D: 06:00-22:00","prices":{"GA":1.669,"G95E5":1.609,"GB":1.39}},{"id":"5269","name":"REPSOL","address":"CR N-430, 566,3, BONETE","lat":38.876111,"lon":-1.331611,"tipoVenta":"P","horario":"L-D: 06:00-22:00","prices":{"GA":1.655,"G95E5":1.625,"G98E5":1.785,"GP":1.765}},{"id":"5268","name":"REPSOL","address":"AUTOVIA A-31 KM. 126, BONETE","lat":38.875861,"lon":-1.3315,"tipoVenta":"P","horario":"L-D: 06:00-22:00","prices":{"GA":1.655,"G95E5":1.625,"G98E5":1.785,"GP":1.765}},{"id":"5282","name":"REPSOL","address":"CALLE CARRETERA MUNERA, 2, BONILLO (EL)","lat":38.953361,"lon":-2.535056,"tipoVenta":"P","horario":"S-D: 07:00-15:00","prices":{"GA":1.675,"G95E5":1.575,"G98E5":1.745,"GP":1.745,"GB":1.469}},{"id":"4390","name":"GASOLINERAS DEL REY","address":"AVDA. ALBACETE, 33, CASAS DE JUAN NUÑEZ","lat":39.100792,"lon":-1.560857,"tipoVenta":"P","horario":"L-D: 07:00-23:00","prices":{"GA":1.579,"G95E5":1.589,"GB":0.999}},{"id":"5204","name":"MOEVE","address":"CARRETERA ALBACETE KM. 94, CASAS-IBAÑEZ","lat":39.283944,"lon":-1.477806,"tipoVenta":"P","horario":"L-D: 07:00-21:00","prices":{"GA":1.679,"G95E5":1.639,"G98E5":1.759,"GP":1.759,"GB":1.479}},{"id":"15047","name":"HAM","address":"CARRETERA D12 ESTACION KM. 1, CAUDETE","lat":38.71075,"lon":-0.973861,"tipoVenta":"P","horario":"L-D: 24H","prices":{"GNL":1.419}},{"id":"5323","name":"GALP","address":"AVENIDA VALENCIA DE, 16, CAUDETE","lat":38.708944,"lon":-0.982111,"tipoVenta":"P","horario":"L-D: 06:00-22:00","prices":{"GA":1.599,"G95E5":1.619,"G98E5":1.769,"GP":1.689}},{"id":"14203","name":"VILA Y FAYOS ","address":"CARRETERA D-12 ESTACION KM. 32, CAUDETE","lat":38.711694,"lon":-0.971639,"tipoVenta":"P","horario":"L-D: 24H","prices":{"GA":1.499,"G95E5":1.509,"GB":1.269}},{"id":"5142","name":"BP PARGA I PETROL BAS BEL","address":"CR N-344 DIRC.VALENCIA, KM.  118.3, CAUDETE","lat":38.727472,"lon":-0.943,"tipoVenta":"P","horario":"L-D: 06:00-22:00","prices":{"GA":1.639,"G95E5":1.639,"G98E5":1.769,"GP":1.739}},{"id":"4820","name":"REPSOL","address":"AUTOVIA A-31 KM. 167,50, CAUDETE","lat":38.756417,"lon":-0.955833,"tipoVenta":"P","horario":"L-D: 06:00-23:00","prices":{"GA":1.655,"G95E5":1.625,"G98E5":1.785,"GP":1.765,"GB":1.465}},{"id":"12074","name":"VIRGEN DE LAS NIEVES","address":"CALLE VIRGEN DE LAS NIEVES, 17, CENIZATE","lat":39.301,"lon":-1.664167,"tipoVenta":"P","horario":"L-D: 24H","prices":{"GA":1.621,"G95E5":1.51,"GB":1.312}},{"id":"5170","name":"REPSOL","address":"AUTOVIA A-31 KM. 86, CHINCHILLA DE MONTE-ARAGO","lat":38.937583,"lon":-1.758,"tipoVenta":"P","horario":"L-D: 06:00-22:00","prices":{"GA":1.679,"G95E5":1.609,"G98E5":1.779,"GLP":1.085}},{"id":"5171","name":"REPSOL","address":"AUTOVIA A-31 KM. 86, CHINCHILLA DE MONTE-ARAGO","lat":38.938611,"lon":-1.757611,"tipoVenta":"P","horario":"L-D: 06:00-22:00","prices":{"GA":1.679,"G95E5":1.609,"GP":1.789}},{"id":"5230","name":"REPSOL","address":"Ctra. AB-430 KM 530,3, CHINCHILLA DE MONTE-ARAGO","lat":38.915972,"lon":-1.726278,"tipoVenta":"P","horario":"L: 06:00-22:00","prices":{"GA":1.679,"G95E5":1.619,"G98E5":1.789,"GP":1.779}},{"id":"5196","name":"REPSOL","address":"CL AVENIDA GENERALISIMO 107 (N-301 km 276), POZO BUENO","lat":38.803389,"lon":-1.731861,"tipoVenta":"P","horario":"L-D: 06:00-22:00","prices":{"GA":1.699,"G95E5":1.629}},{"id":"4800","name":"CEPSA","address":"AUTOVIA A31 KM. 111, VILLAR DE CHINCHILLA","lat":38.898306,"lon":-1.502806,"tipoVenta":"P","horario":"L-V: 06:00-22:00; S-D: 07:00-22:00","prices":{"ADBLUE":1.199,"GA":1.679,"G95E5":1.619,"GP":1.779}},{"id":"5255","name":"CAMPSA","address":"CL BOLEA, 36 (CM-412 km 235,65), ELCHE DE LA SIERRA","lat":38.451306,"lon":-2.044778,"tipoVenta":"P","horario":"L: 06:00-22:00","prices":{"GA":1.709,"G95E5":1.595,"G98E5":1.765,"GB":1.479}},{"id":"15394","name":"DLP","address":"POLIGONO EL CAMPILLO A, 2, ELCHE DE LA SIERRA","lat":38.460694,"lon":-2.017917,"tipoVenta":"P","horario":"L-V: 08:00-21:00; S: 08:00-14:00","prices":{"GA":1.609,"G95E5":1.545}},{"id":"4422","name":"Nº 7374","address":"AVDA. DOCTOR PEREZ GIL, 25, FUENTE-ALAMO","lat":38.689833,"lon":-1.433306,"tipoVenta":"P","horario":"L: 07:00-21:00","prices":{"GA":1.499,"G95E5":1.659,"G98E5":1.82,"GB":1.099}},{"id":"4403","name":"ES SAN ANTONIOABAD. FUENTEALBILLA","address":"N-322 (CORDOBA-VALENCIA) km 399, FUENTEALBILLA","lat":39.269972,"lon":-1.548639,"tipoVenta":"P","horario":"L-D: 07:00-20:00","prices":{"GA":1.489,"G95E5":1.389,"GB":1.139}},{"id":"4841","name":"REPSOL","address":"CR A-31, 235, GINETA (LA)","lat":39.086278,"lon":-1.963944,"tipoVenta":"P","horario":"L-D: 06:00-22:00","prices":{"GA":1.709,"G95E5":1.619,"G98E5":1.749}},{"id":"5237","name":"REPSOL","address":"CR N-301, 231,8, GINETA (LA)","lat":39.107667,"lon":-1.990194,"tipoVenta":"P","horario":"L-D: 07:00-21:00","prices":{"GA":1.699,"G95E5":1.599,"G98E5":1.769,"GP":1.809}},{"id":"4789","name":"MOEVE","address":"CARRETERA NACIONAL 322 KM. 390, GOLOSALVO","lat":39.238111,"lon":-1.635111,"tipoVenta":"P","horario":"L: 06:00-22:00","prices":{"ADBLUE":0.959,"GA":1.624,"G95E5":1.595,"G98E5":1.782,"GP":1.761}},{"id":"4806","name":"REPSOL","address":"CARRETERA JAEN KM. 47, HELLIN","lat":38.502889,"lon":-1.714556,"tipoVenta":"P","horario":"L-D: 07:00-22:30","prices":{"GA":1.675,"G95E5":1.575,"G98E5":1.745}},{"id":"5135","name":"REPSOL","address":"CARRETERA N-301 KM. 316, HELLIN","lat":38.524444,"lon":-1.703056,"tipoVenta":"P","horario":"L-D: 06:00-23:00","prices":{"GA":1.699,"G95E5":1.589,"G98E5":1.759}},{"id":"13229","name":"PETROGAS","address":"CARRETERA CM 412 KM. 273, HELLIN","lat":38.532389,"lon":-1.694889,"tipoVenta":"P","horario":"L-D: 06:30-22:00","prices":{"GA":1.559,"G95E5":1.509}},{"id":"10575","name":"MOEVE","address":"AUTOVIA A-30 KM. 322,5, HELLIN","lat":38.46425,"lon":-1.596722,"tipoVenta":"P","horario":"L-D: 06:00-23:00","prices":{"ADBLUE":1.199,"GA":1.699,"G95E5":1.649,"G98E5":1.789,"GP":1.779}},{"id":"4423","name":"MOEVE","address":"MELCHOR  DE MACANAZ, 66, HELLIN","lat":38.511222,"lon":-1.696972,"tipoVenta":"P","horario":"L: 06:00-23:00","prices":{"GA":1.619,"G95E5":1.669,"G98E5":1.779,"GP":1.679}},{"id":"14148","name":"GALERA ÁREAS DE SERVICIO","address":"CARRETERA N 301-A KM. S/N, HELLIN","lat":38.502528,"lon":-1.677694,"tipoVenta":"P","horario":"L-D: 24H","prices":{"GA":1.579,"G95E5":1.519}},{"id":"4831","name":"PETRONOR","address":"CARRETERA MURCIA KM. 33, HELLIN","lat":38.506806,"lon":-1.687833,"tipoVenta":"P","horario":"L-D: 06:00-23:00","prices":{"GA":1.675,"G95E5":1.579,"G98E5":1.749}},{"id":"11142","name":"IDS","address":"POLIGONO SAN RAFAEL 3ª FASE, SN, HELLIN","lat":38.545111,"lon":-1.705389,"tipoVenta":"P","horario":"L-D: 24H","prices":{"ADBLUE":1.105,"GA":1.716}},{"id":"14611","name":"PLENERGY","address":"AVENIDA LIBERTAD, 111, HELLIN","lat":38.517306,"lon":-1.700417,"tipoVenta":"P","horario":"L-D: 24H","prices":{"GA":1.569,"G95E5":1.519}},{"id":"5312","name":"CEPSA","address":"CARRETERA A-30 KM. 328,2, HELLIN","lat":38.417306,"lon":-1.571667,"tipoVenta":"P","horario":"L-D: 06:00-22:00","prices":{"GA":1.715,"G95E5":1.665,"G98E5":1.744,"GP":1.827}},{"id":"5163","name":"REPSOL","address":"CARRETERA DE HELLIN KM. 104, ISSO","lat":38.491861,"lon":-1.741111,"tipoVenta":"P","horario":"L-D: 06:00-23:00","prices":{"GA":1.669,"G95E5":1.575,"G98E5":1.585,"GB":1.475}},{"id":"4852","name":"REPSOL","address":"AUTOVIA A-31 KM. 103,150, HOYA-GONZALO","lat":38.921833,"lon":-1.583389,"tipoVenta":"P","horario":"L-D: 07:00-23:00","prices":{"GA":1.689,"G95E5":1.619,"GP":1.789}},{"id":"4393","name":"E.S. LETUR","address":"CARRETERA A 45 KM. 39,8, LETUR","lat":38.356556,"lon":-2.111056,"tipoVenta":"P","horario":"L-D: 07:30-21:30","prices":{"GA":1.617,"G95E5":1.587,"GB":1.375}},{"id":"5232","name":"REPSOL","address":"AVENIDA LEVANTE, 15, MADRIGUERAS","lat":39.233056,"lon":-1.799472,"tipoVenta":"P","horario":"L-D: 06:00-22:00","prices":{"GA":1.675,"G95E5":1.575,"GB":1.499}},{"id":"10983","name":"Q8","address":"CARRETERA C-3222 KM. 9, MADRIGUERAS","lat":39.226611,"lon":-1.800611,"tipoVenta":"P","horario":"L-S: 07:00-15:00","prices":{"GA":1.549,"G95E5":1.529}},{"id":"5277","name":"REPSOL","address":"CARRERA N-301, 195,2, MINAYA","lat":39.276056,"lon":-2.330333,"tipoVenta":"P","horario":"L-D: 06:00-22:00","prices":{"ADBLUE":1.199,"GA":1.679,"G95E5":1.639,"G98E5":1.779,"GB":1.429}},{"id":"10526","name":"BODEGAS SANTIAGO APOSTOL","address":"CALLE CAPATAZ SANTIAGO, 91, MONTEALEGRE DEL CASTILLO","lat":38.789694,"lon":-1.32875,"tipoVenta":"P","horario":"L-D: 06:30-23:00","prices":{"GA":1.479,"GB":1.229}},{"id":"5202","name":"LOS CORRALES","address":"CALLE CAPATAZ SANTIAGO, 23, MONTEALEGRE DEL CASTILLO","lat":38.785917,"lon":-1.33025,"tipoVenta":"P","horario":"L-D: 07:00-21:00","prices":{"GA":1.629,"G95E5":1.619}},{"id":"5213","name":"INPEALSA","address":"CALLE POZO (EL), 106, MUNERA","lat":39.043806,"lon":-2.485028,"tipoVenta":"P","horario":"L-D: 06:30-22:30","prices":{"ADBLUE":0.95,"GA":1.579,"G95E5":1.519,"GP":1.629}},{"id":"5265","name":"CAMPSA","address":"CR AB-702, 45,6, NERPIO","lat":38.151167,"lon":-2.293444,"tipoVenta":"P","horario":"L-D: 07:00-21:00","prices":{"GA":1.659,"G95E5":1.575,"G98E5":1.745,"GB":1.489}},{"id":"10619","name":"REPSOL ","address":"CRTA.CM km KM297,5, ONTUR","lat":38.622944,"lon":-1.497667,"tipoVenta":"P","horario":"L-D: 07:00-21:00","prices":{"GA":1.655,"G95E5":1.575,"GB":1.495}},{"id":"11340","name":"ONTALBA S. COOP DE C-LM","address":"CAMINO DE HELLIN S/N, ONTUR","lat":38.609556,"lon":-1.508333,"tipoVenta":"P","horario":"L-D: 24H","prices":{"GA":1.463,"GB":1.178}},{"id":"5270","name":"REPSOL","address":"CARRETERA N 430 KM. 429, OSSA DE MONTIEL","lat":38.967167,"lon":-2.7515,"tipoVenta":"P","horario":"L-D: 07:30-20:30","prices":{"GA":1.659,"G95E5":1.575,"GP":1.769}},{"id":"14417","name":"VALERO 24H ENERGIA","address":"AVENIDA GUARDIA CIVIL, S/N, PEÑAS DE SAN PEDRO","lat":38.724028,"lon":-1.990278,"tipoVenta":"P","horario":"L-D: 24H","prices":{"GA":1.619,"G95E5":1.599}},{"id":"4791","name":"GASOLEOS TURBULA ","address":"CARRETERA FUENTEALAMO KM. 36, PETROLA","lat":38.828806,"lon":-1.553694,"tipoVenta":"P","horario":"L-D: 24H","prices":{"GA":1.609,"G95E5":1.569}},{"id":"5238","name":"REPSOL","address":"CR CM-313 61,7, POZOHONDO","lat":38.717556,"lon":-1.91075,"tipoVenta":"P","horario":"L-D: 07:00-21:00","prices":{"GA":1.769,"G95E5":1.699,"GB":1.579}},{"id":"12334","name":"SAT SANTA CRUZ DE POZO LORENTE","address":"POLIGONO PARAJE RECIAL, 2, POZO-LORENTE","lat":39.081278,"lon":-1.512611,"tipoVenta":"P","horario":"L-D: 24H","prices":{"GA":1.519,"GB":1.145}},{"id":"4410","name":"INLOCOR S.L.","address":"CARRETERA M 313 KM. 50, POZUELO","lat":38.804722,"lon":-2.098778,"tipoVenta":"P","horario":"L-D: 07:00-22:00","prices":{"GA":1.679,"G95E5":1.629,"G98E5":1.759,"GB":1.569}},{"id":"4793","name":"CEPSA","address":"CARRETERA CM-412 KM. 199,5, RIOPAR","lat":38.493528,"lon":-2.411444,"tipoVenta":"P","horario":"L-D: 08:00-20:00","prices":{"GA":1.799,"G95E5":1.699,"GP":1.889}},{"id":"4370","name":"CANOIL","address":"CARRETERA NACIONAL 320 KM. 289, ROBLEDO","lat":38.771194,"lon":-2.450028,"tipoVenta":"P","horario":"L-V: 07:00-21:00; S: 07:00-14:30; D: 07:00-21:00","prices":{"GA":1.589,"G95E5":1.499}},{"id":"11427","name":"REPSOL","address":"AUTOVIA A-31 KM. 40, RODA (LA)","lat":39.200944,"lon":-2.144639,"tipoVenta":"P","horario":"L-D: 06:00-22:00","prices":{"GA":1.699,"G95E5":1.619,"G98E5":1.749,"GP":1.759}},{"id":"5317","name":"GALP","address":"CARRETERA A-31 KM. 50, RODA (LA)","lat":39.143972,"lon":-2.05125,"tipoVenta":"P","horario":"L-D: 07:00-23:00","prices":{"GA":1.679,"G95E5":1.619,"G98E5":1.769,"GP":1.769}},{"id":"8958","name":"LA REMEDIADORA","address":"ALFREDO ATIENZA, 149-151, RODA (LA)","lat":39.201139,"lon":-2.14775,"tipoVenta":"P","horario":"L-D: 24H","prices":{"ADBLUE":0.65,"GA":1.429,"G95E5":1.335,"GB":1.149}},{"id":"5316","name":"GALP","address":"AUTOVIA A-31 KM. 34,50, RODA (LA)","lat":39.225,"lon":-2.186083,"tipoVenta":"P","horario":"L-D: 07:00-23:00","prices":{"GA":1.679,"G95E5":1.619,"G98E5":1.769,"GP":1.769}},{"id":"4891","name":"MOEVE ES JUANITO","address":"CARRETERA MADRID CARTAGENA KM. 209, RODA (LA)","lat":39.212361,"lon":-2.171028,"tipoVenta":"P","horario":"L-D: 06:00-22:00","prices":{"GA":1.68,"G95E5":1.62,"GP":1.77}},{"id":"13480","name":"GASPLAY","address":"CARRETERA AB101 KM. 0,2, RODA (LA)","lat":39.218389,"lon":-2.158028,"tipoVenta":"P","horario":"L-D: 24H","prices":{"ADBLUE":0.7,"GA":1.449,"G95E5":1.339}},{"id":"16431","name":"GASPLAY","address":"CALLE ALFREDO ATIENZA, 168, RODA (LA)","lat":39.200528,"lon":-2.147972,"tipoVenta":"P","horario":"L-D: 24H","prices":{"ADBLUE":0.7,"GA":1.449,"G95E5":1.339}},{"id":"14811","name":"HAM","address":"POLIGONO AVENIDA PRIMERA, 17, RODA (LA)","lat":39.19125,"lon":-2.143056,"tipoVenta":"P","horario":"L-D: 24H","prices":{"GNC":1.464,"GNL":1.419}},{"id":"4894","name":"REPSOL","address":"CALLE ALFREDO ATIENZA, 156, RODA (LA)","lat":39.201667,"lon":-2.149,"tipoVenta":"P","horario":"L-D: 06:00-22:55","prices":{"GA":1.699,"G95E5":1.619,"G98E5":1.739}},{"id":"5162","name":"REPSOL","address":"CARRETERA CM-3114 KM. 0,1, RODA (LA)","lat":39.213722,"lon":-2.156667,"tipoVenta":"P","horario":"L-V: 06:00-10:00; S: 06:00-14:00","prices":{"GA":1.695,"G95E5":1.615,"G98E5":1.775}},{"id":"4392","name":"NAVARRO Y VALERO, S.L","address":"AVENIDA DE LA PAZ, 3, SOCOVOS","lat":38.331361,"lon":-1.981861,"tipoVenta":"P","horario":"L-S: 06:00-22:00; D: 06:30-22:00","prices":{"GA":1.629,"G95E5":1.589,"G98E5":1.719,"GB":1.409}},{"id":"12953","name":"LA GAVIOTA GASOLINERAS","address":"AVENIDA ALBACETE, 35, TARAZONA DE LA MANCHA","lat":39.256194,"lon":-1.912194,"tipoVenta":"P","horario":"L-D: 24H","prices":{"GA":1.479,"G95E5":1.425}},{"id":"5284","name":"REPSOL","address":"CL AVENIDA DE LA RODA, 1, TARAZONA DE LA MANCHA","lat":39.25975,"lon":-1.911389,"tipoVenta":"P","horario":"L-D: 07:00-23:00","prices":{"GA":1.679,"G95E5":1.575}},{"id":"5219","name":"REPSOL","address":"AVENIDA GUARDIA CIVIL, 233, TOBARRA","lat":38.602278,"lon":-1.680917,"tipoVenta":"P","horario":"L-D: 24H","prices":{"ADBLUE":1.2,"GA":1.699,"G95E5":1.639,"G98E5":1.779,"GB":1.439}},{"id":"13778","name":"NTRA. SRA. DE LA ENCARNACION","address":"AVENIDA GUARDIA CIVIL, 162, TOBARRA","lat":38.601722,"lon":-1.680833,"tipoVenta":"P","horario":"L-D: 06:00-23:00","prices":{"GA":1.519,"G95E5":1.439}},{"id":"12786","name":"SAN ROQUE DE TOBARRA S. COOP. DE C-LM","address":"CAMINO CAMINO DEL GUIJARRAL, 0, TOBARRA","lat":38.603306,"lon":-1.694083,"tipoVenta":"P","horario":"L-D: 06:00-22:00","prices":{"GA":1.5,"GB":1.2}},{"id":"11399","name":"E.S. TOBARRA","address":"AVENIDA GUARDIA CIVIL, 114, TOBARRA","lat":38.594639,"lon":-1.685417,"tipoVenta":"P","horario":"L-D: 07:00-22:00","prices":{"GA":1.599,"G95E5":1.539,"GP":1.629}},{"id":"8900","name":"NO HAY","address":"CALLE SANTA CRUZ, 16, VALDEGANGA","lat":39.137222,"lon":-1.680944,"tipoVenta":"P","horario":"L-D: 24H","prices":{"GA":1.495,"G95E5":1.519,"GB":1.187}},{"id":"4895","name":"E.S EL GORRION","address":"CARRETERA CM-3114 KM. 12,7, VILLALGORDO DEL JUCAR","lat":39.302389,"lon":-2.067639,"tipoVenta":"P","horario":"L-D: 07:30-21:30","prices":{"GA":1.519,"G95E5":1.489}},{"id":"15605","name":"CHAMPINTER","address":"CARRETERA CENIZATE KM. 1,5, VILLAMALEA","lat":39.35025,"lon":-1.613194,"tipoVenta":"P","horario":"L-D: 00:00-23:59","prices":{"ADBLUE":0.659,"GA":1.469,"G95E5":1.438}},{"id":"5258","name":"REPSOL","address":"CARRETERA CM-3201 KM. 22,70, VILLAMALEA","lat":39.366861,"lon":-1.592778,"tipoVenta":"P","horario":"L-S: 07:00-21:00; D: 07:00-14:00","prices":{"GA":1.675,"G95E5":1.575,"G98E5":1.745,"GP":1.765,"GB":1.509}},{"id":"10053","name":"BODEGAS SAAC","address":"CALLE VALENCIA, 41, VILLAMALEA","lat":39.367333,"lon":-1.59325,"tipoVenta":"P","horario":"L-D: 24H","prices":{"GA":1.444,"GB":1.148}},{"id":"4893","name":"REPSOL","address":"CR N-322, 258,8, VILLAPALACIOS","lat":38.581722,"lon":-2.626222,"tipoVenta":"P","horario":"L-D: 07:00-21:00","prices":{"GA":1.659,"G95E5":1.599,"G98E5":1.769,"GB":1.429}},{"id":"11797","name":"REPSOL","address":"AUTOVIA A-43 KM. 129, VILLARROBLEDO","lat":39.258778,"lon":-2.586778,"tipoVenta":"P","horario":"L-D: 24H","prices":{"GA":1.639,"G95E5":1.599,"G98E5":1.769}},{"id":"5167","name":"REPSOL","address":"CARRETERA NACIONAL 310 KM. 137,7, VILLARROBLEDO","lat":39.293722,"lon":-2.567139,"tipoVenta":"P","horario":"L-S: 07:00-22:00","prices":{"GA":1.655,"G95E5":1.575,"G98E5":1.745}},{"id":"5123","name":"REPSOL","address":"CARRETERA OSSA DE MONTIEL KM. 21, VILLARROBLEDO","lat":39.257528,"lon":-2.613778,"tipoVenta":"P","horario":"L-S: 06:00-22:00; D: 06:00-15:00","prices":{"GA":1.659,"G95E5":1.575,"G98E5":1.745,"GB":1.485}},{"id":"4442","name":"CARREFOUR","address":"AVENIDA REYES CATÓLICOS (APARCAMIENTO DEL CARREFOUR), S/N, VILLARROBLEDO","lat":39.285722,"lon":-2.579639,"tipoVenta":"P","horario":"L-S: 08:00-22:00","prices":{"GA":1.599,"G95E5":1.539,"G98E5":1.709,"GP":1.639}},{"id":"11976","name":"BP VILLARROBLEDO","address":"AVENIDA REYES CATOLICOS, 133, VILLARROBLEDO","lat":39.277056,"lon":-2.591722,"tipoVenta":"P","horario":"L-D: 06:00-22:00","prices":{"ADBLUE":1.095,"GA":1.649,"G95E5":1.589,"G98E5":1.729,"GP":1.739}},{"id":"15620","name":"PAÑALON","address":"AVENIDA REYES CATOLICOS, 150, VILLARROBLEDO","lat":39.278333,"lon":-2.590194,"tipoVenta":"P","horario":"L-D: 24H","prices":{"ADBLUE":1.2,"GA":1.635}},{"id":"4368","name":"MOEVE","address":"CARRETERA DE LAS MESAS KM. 005, VILLARROBLEDO","lat":39.27225,"lon":-2.617083,"tipoVenta":"P","horario":"L-D: 06:00-22:30","prices":{"ADBLUE":0.899,"GA":1.629,"G95E5":1.589,"GP":1.719,"GB":1.409}},{"id":"5184","name":"MOEVE","address":"CARRETERA N-310 KM. 120,5, VILLARROBLEDO","lat":39.198,"lon":-2.713722,"tipoVenta":"P","horario":"L-V: 07:00-21:00; D: 14:00-21:00","prices":{"ADBLUE":0.999,"GA":1.645,"G95E5":1.585,"G98E5":1.782,"GP":1.75}},{"id":"15264","name":"COMBUSTIBLES FIEL, S.L.","address":"CALLE ARQUIMEDES, 62, VILLARROBLEDO","lat":39.282167,"lon":-2.583778,"tipoVenta":"P","horario":"L-S: 07:00-22:00","prices":{"ADBLUE":0.699,"GA":1.529,"G95E5":1.489,"GB":1.359}},{"id":"15524","name":"MOLGAS","address":"CALLE FERNANDO ZEPPELIN, 13, VILLARROBLEDO","lat":39.268472,"lon":-2.587083,"tipoVenta":"P","horario":"L-D: 00:00-23:59","prices":{"GNL":1.45}},{"id":"12146","name":"MOEVE","address":"AUTOVIA A-43 KM. 390, VILLARROBLEDO","lat":39.205194,"lon":-2.708528,"tipoVenta":"P","horario":"L-D: 06:00-23:59","prices":{"GA":1.699,"G95E5":1.629,"GP":1.779}},{"id":"5305","name":"REPSOL","address":"CALLE DOS DE MAYO, 167, VILLARROBLEDO","lat":39.278222,"lon":-2.602028,"tipoVenta":"P","horario":"L-D: 06:00-00:00","prices":{"GA":1.639,"G95E5":1.589,"GP":1.739,"GB":1.379}},{"id":"12015","name":"PLENERGY","address":"AVENIDA REYES CATOLICOS, 138, VILLARROBLEDO","lat":39.276917,"lon":-2.591111,"tipoVenta":"P","horario":"L-D: 24H","prices":{"GA":1.559,"G95E5":1.519}},{"id":"4785","name":"CEPSA","address":"AVENIDA REYES CATOLICOS, 26, VILLARROBLEDO","lat":39.261472,"lon":-2.599417,"tipoVenta":"P","horario":"L-V: 07:00-21:00; S: 08:00-13:00","prices":{"GA":1.709,"G95E5":1.619,"GP":1.789}},{"id":"15192","name":"GALERA AREAS DE SERVICIO","address":"CALLE NOBEL, 64, VILLARROBLEDO","lat":39.283917,"lon":-2.583361,"tipoVenta":"P","horario":"L-S: 08:00-20:00","prices":{"ADBLUE":0.699,"GA":1.529,"G95E5":1.489,"GP":1.539}},{"id":"14804","name":"PLENERGY","address":"CALLE GENERAL MARTI, 2, VILLARROBLEDO","lat":39.266417,"lon":-2.596944,"tipoVenta":"P","horario":"L-D: 24H","prices":{"GA":1.559,"G95E5":1.519}},{"id":"4796","name":"CEPSA","address":"CARRETERA DE HELLIN KM. 42, YESTE","lat":38.368667,"lon":-2.314667,"tipoVenta":"P","horario":"L-D: 07:00-21:00","prices":{"GA":1.669,"G95E5":1.615,"GP":1.769}},{"id":"9478","name":"CEPSA","address":"CARRETERA AGOST-NOVELDA KM 2 KM. 2, AGOST","lat":38.429417,"lon":-0.66225,"tipoVenta":"P","horario":"L-D: 06:00-22:00","prices":{"GA":1.619,"G95E5":1.659,"G98E5":1.799,"GP":1.719,"GB":1.399}},{"id":"11305","name":"GALP","address":"AUTOPISTA AP 7 KM. 696, AGOST","lat":38.408861,"lon":-0.599444,"tipoVenta":"P","horario":"L-D: 24H","prices":{"GA":1.659,"G95E5":1.679,"G98E5":1.799,"GP":1.749}},{"id":"3683","name":"REPSOL","address":"CARRETERA SAN VICENTE - AGOST KM. 11, AGOST","lat":38.434417,"lon":-0.63725,"tipoVenta":"P","horario":"L-D: 06:00-22:00","prices":{"ADBLUE":0.92,"GA":1.619,"G95E5":1.659,"GB":1.399}},{"id":"11306","name":"GALP","address":"AUTOPISTA AP 7 KM. 696, AGOST","lat":38.406528,"lon":-0.599972,"tipoVenta":"P","horario":"L-D: 24H","prices":{"GA":1.659,"G95E5":1.679,"G98E5":1.799,"GP":1.749}},{"id":"3588","name":"REPSOL","address":"CARRETERA N-340 KM. 696,7, ALBATERA","lat":38.165222,"lon":-0.89475,"tipoVenta":"P","horario":"L-V: 06:00-22:00","prices":{"ADBLUE":0.85,"GA":1.629,"G95E5":1.659,"GB":1.479}},{"id":"3589","name":"REPSOL","address":"N-340 km 696,7, ALBATERA","lat":38.199417,"lon":-0.848722,"tipoVenta":"P","horario":"L-D: 24H","prices":{"GA":1.629,"G95E5":1.659,"G98E5":1.819}},{"id":"3692","name":"REPSOL","address":"CARRETERA CATRAL-ALBATERA KM. 4,2, ALBATERA","lat":38.175028,"lon":-0.854056,"tipoVenta":"P","horario":"L-D: 24H","prices":{"GA":1.629,"G95E5":1.659,"G98E5":1.829,"GB":1.535,"GLP":1.045,"GNC":1.454,"GNL":1.439}},{"id":"14191","name":"SUVER GASOLEOS ","address":"CALLE POLIGONO INDUSTRIAL MOS DEL BOU, CALLE EL ESPARTO, 5, ALBATERA","lat":38.168111,"lon":-0.889167,"tipoVenta":"P","horario":"L-D: 24H","prices":{"GA":1.559,"G95E5":1.529,"GP":1.629}},{"id":"3565","name":"FTH","address":"CARRETERA N-340 KM. 702,1, ALBATERA","lat":38.199389,"lon":-0.848833,"tipoVenta":"P","horario":"L-D: 06:00-22:00","prices":{"ADBLUE":0.9,"GA":1.569,"G95E5":1.609,"GP":1.649}},{"id":"14852","name":"REPSOL ","address":"POLIGONO PLAZA MOSQUERA, 6, ALCALALI","lat":38.751972,"lon":-0.042083,"tipoVenta":"P","horario":"L-D: 24H","prices":{"GA":1.649,"G95E5":1.679,"GP":1.72}},{"id":"15700","name":"PLENERGY","address":"CALLE ALACANT, 101, ALCOY/ALCOI","lat":38.683806,"lon":-0.471194,"tipoVenta":"P","horario":"L-D: 24H","prices":{"GA":1.539,"G95E5":1.539}},{"id":"16089","name":"BALLENOIL","address":"CALLE ALACANT, 58, ALCOY/ALCOI","lat":38.689278,"lon":-0.480306,"tipoVenta":"P","horario":"L-D: 24H","prices":{"GA":1.539,"G95E5":1.539,"GP":1.549}},{"id":"13370","name":"MASOIL ALCOY","address":"CALLE ALICANTE, 62, ALCOY/ALCOI","lat":38.689083,"lon":-0.479694,"tipoVenta":"P","horario":"L-D: 24H","prices":{"ADBLUE":1,"GA":1.539,"G95E5":1.539,"GLP":1.05}},{"id":"9298","name":"REPSOL","address":"CALLE ALICANTE, 62, ALCOY/ALCOI","lat":38.688639,"lon":-0.479611,"tipoVenta":"P","horario":"L-D: 05:00-23:00","prices":{"GA":1.619,"G95E5":1.669,"G98E5":1.839,"GP":1.679}},{"id":"3586","name":"PETRONOR","address":"CALLE OLIVER, 72, ALCOY/ALCOI","lat":38.691972,"lon":-0.489722,"tipoVenta":"P","horario":"L-D: 06:00-22:00","prices":{"ADBLUE":0.92,"GA":1.599,"G95E5":1.669,"G98E5":1.799,"GP":1.699}},{"id":"14200","name":"GASEXPRESS","address":"CALLE VALENCIA ESQ C/SANT JOAN BOSCO, 1, ALCOY/ALCOI","lat":38.711556,"lon":-0.46625,"tipoVenta":"P","horario":"L-D: 24H","prices":{"GA":1.519,"G95E5":1.519}},{"id":"3475","name":"REPSOL","address":"PG COTES BAIXES,CALLE C,PARC.1, 0, ALCOY/ALCOI","lat":38.714361,"lon":-0.462528,"tipoVenta":"P","horario":"L-D: 06:00-22:00","prices":{"GA":1.615,"G95E5":1.675,"G98E5":1.845,"GP":1.725}},{"id":"3728","name":"GALP","address":"N-340 km 131,000, ALCOY/ALCOI","lat":38.683389,"lon":-0.471306,"tipoVenta":"P","horario":"L-D: 06:00-22:00","prices":{"ADBLUE":0.799,"GA":1.579,"G95E5":1.579,"G98E5":1.739,"GP":1.629}},{"id":"3713","name":"GASOLINERA ALCOY ","address":"Alicante, 1 - P.I. Beniata, ALCOY/ALCOI","lat":38.695083,"lon":-0.477972,"tipoVenta":"P","horario":"L-D: 24H","prices":{"GA":1.539,"G95E5":1.539}},{"id":"11428","name":"REPSOL","address":"AVENIDA TIRANT, S/N, ALCOY/ALCOI","lat":38.70875,"lon":-0.472556,"tipoVenta":"P","horario":"L-D: 06:00-22:00","prices":{"GA":1.625,"G95E5":1.675,"G98E5":1.845,"GP":1.725,"GLP":1.085}},{"id":"15778","name":"BEROIL","address":"AVINGUDA PAIS VALENCIÁ, 37, ALFAS DEL PI (L')","lat":38.580639,"lon":-0.104972,"tipoVenta":"P","horario":"L-D: 24H","prices":{"ADBLUE":0.6,"GA":1.429,"G95E5":1.399}},{"id":"14851","name":"BP ALFAZ DEL PI","address":"CALLE MALLORCA, CTRA. CV-763, 1, ALFAS DEL PI (L')","lat":38.571139,"lon":-0.0965,"tipoVenta":"P","horario":"L-D: 07:00-23:00","prices":{"GA":1.615,"G95E5":1.669,"G98E5":1.809,"GP":1.705}},{"id":"15099","name":"PLENERGY","address":"AVENIDA PAIS VALENCIÁ, 47, ALFAS DEL PI (L')","lat":38.58225,"lon":-0.106167,"tipoVenta":"P","horario":"L-D: 24H","prices":{"GA":1.429,"G95E5":1.399}},{"id":"3623","name":"REPSOL","address":"CL AVDA. DEL PAIS VALENCIANO S.N., ALFAS DEL PI (L')","lat":38.581361,"lon":-0.105389,"tipoVenta":"P","horario":"L-D: 06:00-22:00","prices":{"GA":1.625,"G95E5":1.675,"G98E5":1.815,"GP":1.725}},{"id":"15006","name":"PLENERGY","address":"AVENIDA ALBIR, 90, ALFAS DEL PI (L')","lat":38.574028,"lon":-0.076694,"tipoVenta":"P","horario":"L-D: 24H","prices":{"GA":1.429,"G95E5":1.399}},{"id":"3733","name":"GALP","address":"AP-1535 km 2,000, ALFAS DEL PI (L')","lat":38.567722,"lon":-0.082972,"tipoVenta":"P","horario":"L-D: 06:00-22:00","prices":{"GA":1.519,"G95E5":1.569,"G98E5":1.719,"GP":1.569}},{"id":"11929","name":"BP EL ZOCO","address":"POLIGONO SECTOR VIII - EL ZOCO, S/N, ALGORFA","lat":38.058389,"lon":-0.746611,"tipoVenta":"P","horario":"L-D: 06:00-22:00","prices":{"GA":1.609,"G95E5":1.635,"G98E5":1.775,"GP":1.699}},{"id":"3416","name":"CEPSA","address":"CALLE SAN JUAN, 32, ALGUEÑA","lat":38.339222,"lon":-0.998222,"tipoVenta":"P","horario":"L-D: 06:30-21:00","prices":{"GA":1.579,"G95E5":1.619,"GP":1.659,"GB":1.559}},{"id":"10941","name":"BP SANDOVAL MI","address":"AVENIDA DENIA, 75, ALICANTE/ALACANT","lat":38.359667,"lon":-0.467361,"tipoVenta":"P","horario":"L-D: 24H","prices":{"GA":1.609,"G95E5":1.649,"G98E5":1.789,"GP":1.699}},{"id":"10940","name":"BP SANDOVAL MD","address":"AVENIDA DENIA, 80, ALICANTE/ALACANT","lat":38.359278,"lon":-0.466972,"tipoVenta":"P","horario":"L-D: 24H","prices":{"GA":1.609,"G95E5":1.649,"G98E5":1.789,"GP":1.699}},{"id":"3673","name":"REPSOL","address":"AVENIDA PADRE ESPLÁ, 36, ALICANTE/ALACANT","lat":38.357,"lon":-0.47675,"tipoVenta":"P","horario":"L-V: 07:30-21:00; S: 08:00-15:00; D: 09:30-14:30","prices":{"GA":1.619,"G95E5":1.655}},{"id":"15630","name":"AVANZA LOW COST","address":"CALLE BULEVAR TEULADA, 86, ALICANTE/ALACANT","lat":38.364194,"lon":-0.499917,"tipoVenta":"P","horario":"L-D: 24H","prices":{"GA":1.489,"G95E5":1.474}},{"id":"8379","name":"SHELL","address":"AVENIDA UNIVERSIDAD, S/N, ALICANTE/ALACANT","lat":38.374139,"lon":-0.506833,"tipoVenta":"P","horario":"L-D: 24H","prices":{"GA":1.559,"G95E5":1.629,"G98E5":1.769,"GP":1.639,"GLP":1.019}},{"id":"3550","name":"REPSOL","address":"AVENIDA NOVELDA, 179, ALICANTE/ALACANT","lat":38.370222,"lon":-0.4975,"tipoVenta":"P","horario":"L-D: 07:00-00:00","prices":{"GA":1.615,"G95E5":1.655,"G98E5":1.825,"GP":1.675}},{"id":"12283","name":"REPSOL","address":"CALLE FORTUNY, S/N, ALICANTE/ALACANT","lat":38.375333,"lon":-0.499444,"tipoVenta":"P","horario":"L-D: 06:00-22:00","prices":{"GA":1.625,"G95E5":1.659,"G98E5":1.829,"GP":1.735}},{"id":"12649","name":"GM OIL","address":"CALLE JATIVA, S/N, ALICANTE/ALACANT","lat":38.377722,"lon":-0.504722,"tipoVenta":"P","horario":"L-D: 24H","prices":{"GA":1.429,"G95E5":1.409}},{"id":"3690","name":"REPSOL","address":"AVENIDA DE LA UNIVERSIDAD, SN, ALICANTE/ALACANT","lat":38.376194,"lon":-0.508861,"tipoVenta":"P","horario":"L-D: 24H","prices":{"GA":1.639,"G95E5":1.655,"G98E5":1.775,"GLP":1.045}},{"id":"10245","name":"PLENERGY","address":"AVENIDA NOVELDA, 74, ALICANTE/ALACANT","lat":38.364222,"lon":-0.494333,"tipoVenta":"P","horario":"L-D: 24H","prices":{"GA":1.439,"G95E5":1.415}},{"id":"3593","name":"REPSOL","address":"AVENIDA JIJONA, 88, ALICANTE/ALACANT","lat":38.358556,"lon":-0.483944,"tipoVenta":"P","horario":"L-S: 06:30-22:30; D: 07:00-22:30","prices":{"GA":1.639,"G95E5":1.669,"G98E5":1.829,"GP":1.739}},{"id":"3421","name":"BALLENOIL","address":"AVENIDA GASTON CASTELLO, 58, ALICANTE/ALACANT","lat":38.375111,"lon":-0.486944,"tipoVenta":"P","horario":"L-D: 24H","prices":{"GA":1.439,"G95E5":1.409,"GP":1.449}},{"id":"13283","name":"ALCAMPO","address":"AVENIDA ANTONIO RAMOS CARRATALA, 56, ALICANTE/ALACANT","lat":38.370694,"lon":-0.466806,"tipoVenta":"P","horario":"L-D: 24H","prices":{"GA":1.479,"G95E5":1.409,"G98E5":1.539,"GP":1.539}},{"id":"3417","name":"MOEVE","address":"AVDA. DE LA CONDOMINA, 47 (C-190 km 3,7), ALICANTE/ALACANT","lat":38.363639,"lon":-0.434556,"tipoVenta":"P","horario":"L-D: 24H","prices":{"GA":1.644,"G95E5":1.664,"GP":1.744}},{"id":"15170","name":"PLENERGY","address":"CALLE ANTONIO RAMOS CARRATALÁ, 26, ALICANTE/ALACANT","lat":38.369889,"lon":-0.464083,"tipoVenta":"P","horario":"L-D: 24H","prices":{"GA":1.479,"G95E5":1.409}},{"id":"3580","name":"GOTETA","address":"AVENIDA DENIA, 60, ALICANTE/ALACANT","lat":38.355389,"lon":-0.472306,"tipoVenta":"P","horario":"L-D: 24H","prices":{"ADBLUE":1.079,"GA":1.599,"G95E5":1.645,"G98E5":1.775,"GP":1.699,"GLP":1.049}},{"id":"13851","name":"AVANZA ENERGY","address":"VIAL FLORA DE ESPAÑA, 28, ALICANTE/ALACANT","lat":38.369111,"lon":-0.444778,"tipoVenta":"P","horario":"L-D: 06:30-22:00","prices":{"GA":1.604,"G95E5":1.655,"G98E5":1.824,"GP":1.699,"GLP":1.064}},{"id":"8300","name":"GALP","address":"VIAL CONEXION N-332 Y A-7, S/N, ALICANTE/ALACANT","lat":38.37,"lon":-0.446667,"tipoVenta":"P","horario":"L-D: 06:00-22:00","prices":{"GA":1.589,"G95E5":1.649,"G98E5":1.799,"GP":1.679}},{"id":"3603","name":"BP VISTAHERMOSA ","address":"AVENIDA DENIA, 150, ALICANTE/ALACANT","lat":38.375472,"lon":-0.453806,"tipoVenta":"P","horario":"L-D: 07:00-23:00","prices":{"GA":1.609,"G95E5":1.649,"G98E5":1.789,"GP":1.699}},{"id":"15696","name":"PLENERGY","address":"AVENIDA DENIA, 0, ALICANTE/ALACANT","lat":38.371389,"lon":-0.457694,"tipoVenta":"P","horario":"L-D: 24H","prices":{"GA":1.479,"G95E5":1.409}},{"id":"3470","name":"REPSOL","address":"CARRETERA A-214 KM. 5, ALICANTE/ALACANT","lat":38.401,"lon":-0.47775,"tipoVenta":"P","horario":"L-D: 06:00-22:00","prices":{"GA":1.635,"G95E5":1.655,"G98E5":1.825,"GP":1.745}},{"id":"13568","name":"AVANZA LOW COST","address":"CALLE MUSICO JOSE TORREGROSA, 33, ALICANTE/ALACANT","lat":38.383583,"lon":-0.48975,"tipoVenta":"P","horario":"L-D: 24H","prices":{"GA":1.489,"G95E5":1.474}},{"id":"10710","name":"BP REJAS VERDES","address":"AVENIDA PINTOR GASTON CASTELLO, 1, ALICANTE/ALACANT","lat":38.370083,"lon":-0.486611,"tipoVenta":"P","horario":"L-D: 06:00-22:00","prices":{"GA":1.609,"G95E5":1.649,"G98E5":1.789,"GP":1.699}},{"id":"13585","name":"PETROPRIX","address":"AVENIDA NOVELDA, 216, ALICANTE/ALACANT","lat":38.376944,"lon":-0.499722,"tipoVenta":"P","horario":"L-D: 24H","prices":{"GA":1.439,"G95E5":1.415}},{"id":"13572","name":"VCC ALICANTE ","address":"AVENIDA NOVELDA, 204, ALICANTE/ALACANT","lat":38.375972,"lon":-0.498972,"tipoVenta":"P","horario":"L-D: 24H","prices":{"GA":1.447,"G95E5":1.447}},{"id":"3680","name":"REPSOL","address":"CARRETERA 112,6 KM. N-332, SANTA FAZ","lat":38.38625,"lon":-0.447417,"tipoVenta":"P","horario":"L-D: 06:30-22:30","prices":{"GA":1.625,"G95E5":1.665,"G98E5":1.785,"GP":1.685}},{"id":"13759","name":"E.S. SANTA FAZ","address":"AVENIDA DE DENIA, 183, SANTA FAZ","lat":38.385639,"lon":-0.449972,"tipoVenta":"P","horario":"L-D: 06:30-22:30","prices":{"GA":1.605,"G95E5":1.645,"GP":1.75}},{"id":"9191","name":"AVANZA ENERGY","address":"POLIGONO PLA VALLONGA CALLE 8, PARCELA 15, ALICANTE/ALACANT","lat":38.34825,"lon":-0.555389,"tipoVenta":"P","horario":"L-V: 06:00-21:30; S: 07:00-15:00","prices":{"ADBLUE":1.122,"GA":1.604,"G95E5":1.655,"G98E5":1.824,"GP":1.699,"GB":1.608}},{"id":"3684","name":"PETRONOR","address":"CARRETERA N-330 KM. 409, ALICANTE/ALACANT","lat":38.344944,"lon":-0.523167,"tipoVenta":"P","horario":"L-D: 06:30-21:00","prices":{"GA":1.629,"G95E5":1.665,"G98E5":1.835,"GP":1.739}},{"id":"11474","name":"REPSOL","address":"CARRETERA MADRID ESQ.RIO JUCAR KM. 19, ALICANTE/ALACANT","lat":38.344611,"lon":-0.522944,"tipoVenta":"P","horario":"L-V: 06:00-22:00; S-D: 07:00-21:00","prices":{"GA":1.629,"G95E5":1.665,"G98E5":1.835,"GP":1.739,"GLP":1.045}},{"id":"3406","name":"CEPSA","address":"CARRETERA N-330A KM. 407,7, ALICANTE/ALACANT","lat":38.343611,"lon":-0.545111,"tipoVenta":"P","horario":"L-V: 05:00-21:00","prices":{"GA":1.699,"G95E5":1.685,"GP":1.799,"GB":1.659}},{"id":"11716","name":"CONFORT AUTO","address":"AVENIDA NEPTUNO, 4, ALICANTE/ALACANT","lat":38.344,"lon":-0.524194,"tipoVenta":"P","horario":"L-V: 06:00-22:00; S: 07:00-15:00","prices":{"ADBLUE":1.05,"GA":1.529,"G95E5":1.497,"G98E5":1.719,"GP":1.659}},{"id":"9119","name":"SHELL","address":"AVDA. ORIHUELA, S/N - ESQUINA VIA PARQUE, ALICANTE/ALACANT","lat":38.345583,"lon":-0.517889,"tipoVenta":"P","horario":"L-D: 06:00-00:00","prices":{"GA":1.579,"G95E5":1.639,"G98E5":1.779,"GP":1.659,"GLP":1.019}},{"id":"13593","name":"BALLENOIL","address":"CALLE OCAÑA, 16, ALICANTE/ALACANT","lat":38.345056,"lon":-0.522278,"tipoVenta":"P","horario":"L-D: 24H","prices":{"GA":1.439,"G95E5":1.415}},{"id":"3729","name":"GALP","address":"AVENIDA RAMÓN GÓMEZ SEMPERE, 4, ALICANTE/ALACANT","lat":38.330583,"lon":-0.5135,"tipoVenta":"P","horario":"L-D: 06:00-22:00","prices":{"GA":1.589,"G95E5":1.649,"G98E5":1.799,"GP":1.679}},{"id":"13584","name":"PETROPRIX","address":"AVENIDA ELCHE, 150, ALICANTE/ALACANT","lat":38.303611,"lon":-0.521389,"tipoVenta":"P","horario":"L-D: 24H","prices":{"GA":1.439,"G95E5":1.419}},{"id":"3731","name":"TAMOIL","address":"CALLE ARTES GRAFICAS, 89, ALICANTE/ALACANT","lat":38.335694,"lon":-0.512833,"tipoVenta":"P","horario":"L-D: 24H","prices":{"ADBLUE":0.799,"GA":1.549,"G95E5":1.529,"G98E5":1.599}},{"id":"3412","name":"MOEVE","address":"AVENIDA ELCHE (N-332 P.K. 102), 16, ALICANTE/ALACANT","lat":38.337778,"lon":-0.500389,"tipoVenta":"P","horario":"L-D: 24H","prices":{"GA":1.669,"G95E5":1.679,"GP":1.769}},{"id":"12961","name":"CARREFOUR","address":"CALLE ALCALDE LORENZO CARBONELL, S/N ESQUINA VIA PARQUE, S/N, ALICANTE/ALACANT","lat":38.340028,"lon":-0.51775,"tipoVenta":"P","horario":"L-D: 24H","prices":{"GA":1.549,"G95E5":1.539,"GP":1.589}},{"id":"9302","name":"MOEVE","address":"AVENIDA ALCALDE LORENZO CARBONELL, 71, ALICANTE/ALACANT","lat":38.338611,"lon":-0.516,"tipoVenta":"P","horario":"L-D: 06:00-22:00","prices":{"GA":1.644,"G95E5":1.664,"GP":1.754}},{"id":"3749","name":"GALP","address":"Rosa de los Vientos (esq. Camino Viejo de Elche), ALICANTE/ALACANT","lat":38.337778,"lon":-0.523139,"tipoVenta":"P","horario":"L-V: 06:00-22:00; S-D: 06:00-14:00","prices":{"GA":1.589,"G95E5":1.649,"G98E5":1.799,"GP":1.679}},{"id":"12485","name":"AVANZA ENERGY","address":"CARRETERA OCAÑA KM. 7, ALICANTE/ALACANT","lat":38.344917,"lon":-0.518333,"tipoVenta":"P","horario":"L-D: 24H","prices":{"GA":1.604,"G95E5":1.655,"G98E5":1.824,"GP":1.699,"GLP":1.014}},{"id":"3727","name":"GALP","address":"N-330-P.K. 409,1 P.I. El Espartal, ALICANTE/ALACANT","lat":38.34525,"lon":-0.520556,"tipoVenta":"P","horario":"L-V: 06:00-22:00; S: 06:00-14:00","prices":{"GA":1.589,"G95E5":1.649,"G98E5":1.799,"GP":1.679}},{"id":"3446","name":"MOEVE","address":"POLIGONO ZONA INDUSTRIAL A, POLIGONO B, S/N, BACAROT (EL)","lat":38.344139,"lon":-0.538472,"tipoVenta":"P","horario":"L-D: 24H","prices":{"GA":1.644,"G95E5":1.664,"GP":1.764,"GB":1.614}},{"id":"3660","name":"PETRONOR","address":"CARRETERA N-330 A KM. 401, FONT-CALENT","lat":38.342361,"lon":-0.607083,"tipoVenta":"P","horario":"L-V: 07:00-21:00; S: 08:00-14:00","prices":{"GA":1.589,"G95E5":1.645,"G98E5":1.815,"GP":1.699}},{"id":"1893","name":"AQUAVEL","address":"CARRETERA CV 820 KM. 1,4, MORALET","lat":38.411,"lon":-0.565972,"tipoVenta":"P","horario":"L-D: 24H","prices":{"GA":1.599,"G95E5":1.599,"G98E5":1.999,"GP":1.619}},{"id":"9455","name":"REPSOL","address":"CARRETERA CV 820 KM. 1,3, MORALET","lat":38.4115,"lon":-0.565444,"tipoVenta":"P","horario":"L-D: 06:00-22:00","prices":{"ADBLUE":1.599,"GA":1.649,"G95E5":1.669,"G98E5":1.769,"GP":1.699}},{"id":"3453","name":"ATALAYAS","address":"CALLE DEL RUBLO PARC R75, 75, ALICANTE/ALACANT","lat":38.338278,"lon":-0.566472,"tipoVenta":"P","horario":"L-V: 06:00-22:00; S: 07:00-14:00","prices":{"GA":1.682,"G95E5":1.639}},{"id":"15396","name":"PARCELOGIC","address":"AVENIDA DEL EURO, 9, ALICANTE/ALACANT","lat":38.340861,"lon":-0.57275,"tipoVenta":"P","horario":"L-D: 24H","prices":{"GA":1.565,"G95E5":1.547}},{"id":"14211","name":"PETROPRIX","address":"CALLE PARTIDA DE LA ERA ALTA, 57, ALMORADI","lat":38.122583,"lon":-0.783083,"tipoVenta":"P","horario":"L-D: 24H","prices":{"GA":1.449,"G95E5":1.429}},{"id":"3410","name":"CEPSA","address":"CARRETERA C-3321 KM. 38,1, ALMORADI","lat":38.123556,"lon":-0.781806,"tipoVenta":"P","horario":"L-D: 06:00-22:00","prices":{"GA":1.674,"G95E5":1.674,"GP":1.804,"GB":1.544}},{"id":"9717","name":"REPSOL","address":"AVENIDA ORIHUELA, 17, ALMORADI","lat":38.104778,"lon":-0.797083,"tipoVenta":"P","horario":"L-D: 06:00-00:00","prices":{"GA":1.619,"G95E5":1.659,"G98E5":1.809,"GP":1.729,"GB":1.459}},{"id":"9613","name":"LAS MAROMAS","address":"AVENIDA COMUNIDAD EUROPEA, 1, ALMORADI","lat":38.099361,"lon":-0.796528,"tipoVenta":"P","horario":"L-D: 06:30-22:30","prices":{"GA":1.499,"G95E5":1.479,"G98E5":1.659,"GP":1.569,"GB":1.399}},{"id":"3514","name":"GASOLEO EXPRES","address":"AVENIDA DOCTOR MARAÑON, 0, ALMORADI","lat":38.104472,"lon":-0.782111,"tipoVenta":"P","horario":"L-S: 06:00-22:00; D: 07:00-22:00","prices":{"ADBLUE":0.95,"GA":1.469,"G95E5":1.449,"GP":1.539}},{"id":"14626","name":"LAS MAROMAS-2","address":"CALLE REINO UNIDO, 1, ALMORADI","lat":38.100389,"lon":-0.800556,"tipoVenta":"P","horario":"L-D: 24H","prices":{"GA":1.459,"G95E5":1.439}},{"id":"3721","name":"BP","address":"AVENIDA PRINCIPE DE ESPAÑA, 10, ALMORADI","lat":38.115139,"lon":-0.78875,"tipoVenta":"P","horario":"L-V: 06:00-22:00; S-D: 07:00-22:00","prices":{"GA":1.599,"G95E5":1.659,"G98E5":1.799,"GP":1.699}},{"id":"3712","name":"GALP","address":"Carrer De La Mar, 157, ALTEA","lat":38.593222,"lon":-0.054917,"tipoVenta":"P","horario":"L-D: 07:00-23:00","prices":{"GA":1.589,"G95E5":1.659,"G98E5":1.809,"GP":1.679}},{"id":"16438","name":"GASEXPRESS ","address":"PARTIDA EL PLANET, 161, 161, ALTEA","lat":38.585028,"lon":-0.066667,"tipoVenta":"P","horario":"L-D: 24H","prices":{"GA":1.439,"G95E5":1.439}},{"id":"3402","name":"REPSOL","address":"CALLE GARGANES, 42, ALTEA","lat":38.604722,"lon":-0.048611,"tipoVenta":"P","horario":"L-D: 06:00-00:00","prices":{"GA":1.645,"G95E5":1.689,"G98E5":1.809,"GP":1.695}},{"id":"14551","name":"PETROPRIX ","address":"CALLE CUESTA DE LAS NARICES, 11, ALTEA","lat":38.594194,"lon":-0.056056,"tipoVenta":"P","horario":"L-D: 24H","prices":{"GA":1.429,"G95E5":1.399}},{"id":"3517","name":"REPSOL","address":"CARRETERA N-332 KM. 155,5, ALTEA","lat":38.586556,"lon":-0.064694,"tipoVenta":"P","horario":"L-D: 06:00-22:00","prices":{"GA":1.629,"G95E5":1.689,"G98E5":1.859,"GP":1.729}},{"id":"3484","name":"REPSOL","address":"CARRETERA LA NUCIA KM. 2,8, ALTEA","lat":38.605917,"lon":-0.078472,"tipoVenta":"P","horario":"L: 07:00-22:00","prices":{"GA":1.635,"G95E5":1.685,"G98E5":1.805,"GP":1.745}},{"id":"3444","name":"CEPSA ","address":"CARRETERA CV-755 KM. 9,2, ALTEA LA VELLA","lat":38.62675,"lon":-0.0385,"tipoVenta":"P","horario":"L-D: 06:30-22:30","prices":{"GA":1.66,"G95E5":1.67,"G98E5":1.864,"GP":1.776}},{"id":"11718","name":"CONFORT AUTO","address":"CARRETERA NOVELDA KM. 22, ASPE","lat":38.358167,"lon":-0.770917,"tipoVenta":"P","horario":"L-V: 06:00-22:00; S: 08:00-15:00","prices":{"ADBLUE":0.88,"GA":1.528,"G95E5":1.493,"G98E5":1.709,"GP":1.649}},{"id":"11522","name":"LEVANTINA","address":"POLIGONO C/ IBI, S/N, ASPE","lat":38.356139,"lon":-0.770417,"tipoVenta":"P","horario":"L-S: 06:00-22:00","prices":{"ADBLUE":0.89,"GA":1.615,"G95E5":1.619,"GP":1.705}},{"id":"10582","name":"BP","address":"POLIGONO TRES HERMANAS   ALCOHOLERA, 11, ASPE","lat":38.325917,"lon":-0.767139,"tipoVenta":"P","horario":"L-S: 06:00-22:00; D: 07:00-15:00","prices":{"GA":1.619,"G95E5":1.655,"G98E5":1.795,"GP":1.709}},{"id":"3649","name":"RASPA-OIL (SERV. ATENDIDO)","address":"CR N-325, 5,8, ASPE","lat":38.3555,"lon":-0.772833,"tipoVenta":"P","horario":"L-D: 24H","prices":{"ADBLUE":0.997,"GA":1.529,"G95E5":1.519,"GP":1.529,"GLP":1.014}},{"id":"14237","name":"GASOLINERA ASPE","address":"AVENIDA AVENIDA DE ORIHUELA, 101, ASPE","lat":38.336861,"lon":-0.777556,"tipoVenta":"P","horario":"L-D: 24H","prices":{"GA":1.529,"G95E5":1.499}},{"id":"3542","name":"REPSOL","address":"AVENIDA 3 DE AGOSTO, 23, ASPE","lat":38.336722,"lon":-0.774111,"tipoVenta":"P","horario":"L-D: 06:00-22:00","prices":{"GA":1.585,"G95E5":1.579,"G98E5":1.749,"GB":1.329}},{"id":"14449","name":"PLENERGY","address":"AVENIDA TRES DE AGOSTO, 20, ASPE","lat":38.341583,"lon":-0.773361,"tipoVenta":"P","horario":"L-D: 24H","prices":{"GA":1.529,"G95E5":1.499}},{"id":"1943","name":"CEPSA ESPAÑA S.A.","address":"AVD.DE NAVARRA 151, ASPE","lat":38.354028,"lon":-0.772639,"tipoVenta":"P","horario":"L-D: 07:00-22:00","prices":{"GA":1.597,"G95E5":1.597,"G98E5":1.767,"GP":1.697}},{"id":"3405","name":"REPSOL","address":"CALLE PADRE JESUALDO FERRERO, 1, BANYERES DE MARIOLA","lat":38.715917,"lon":-0.664056,"tipoVenta":"P","horario":"L-D: 06:00-22:00","prices":{"ADBLUE":0.92,"GA":1.635,"G95E5":1.669}},{"id":"3663","name":"CEPSA","address":"CALLE LES MOLINES, 35, , BANYERES DE MARIOLA","lat":38.720111,"lon":-0.671194,"tipoVenta":"P","horario":"L-D: 06:00-22:00","prices":{"GA":1.629,"G95E5":1.659,"G98E5":1.999,"GP":1.709}},{"id":"1907","name":"COOPERATIVA DIVINA AURORA","address":"CALLE DR. SILVESTRE, , BENEIXAMA","lat":38.701889,"lon":-0.76775,"tipoVenta":"P","horario":"L-D: 24H","prices":{"GA":1.609,"G95E5":1.559,"GB":1.299}},{"id":"10302","name":"GASOLWIN BENEIXAMA","address":"CARRETERA VILLENA-ALCUDIA KM. 10,608, BENEIXAMA","lat":38.698,"lon":-0.771194,"tipoVenta":"P","horario":"L-D: 06:00-22:00","prices":{"ADBLUE":0.749,"GA":1.549,"G95E5":1.549}},{"id":"3574","name":"REPSOL","address":"CARRETERA JACARILLA KM. S/N, BENEJUZAR","lat":38.076944,"lon":-0.843056,"tipoVenta":"P","horario":"L-D: 06:00-22:00","prices":{"GA":1.649,"G95E5":1.679,"G98E5":1.749,"GP":1.749,"GB":1.419}},{"id":"11766","name":"REPSOL","address":"CARRETERA CV-70 KM. 47, BENIDORM","lat":38.559583,"lon":-0.134444,"tipoVenta":"P","horario":"L-D: 24H","prices":{"GA":1.619,"G95E5":1.669,"G98E5":1.789,"GP":1.679,"GLP":1.085}},{"id":"3632","name":"BP BENIDORM","address":"AVENIDA COMUNIDAD VALENCIANA, 18, BENIDORM","lat":38.544194,"lon":-0.11925,"tipoVenta":"P","horario":"L-D: 24H","prices":{"GA":1.615,"G95E5":1.669,"G98E5":1.809,"GP":1.705}},{"id":"3716","name":"BP CALA BENIDORM","address":"AVENIDA VILLAJOYOSA LA, 34, BENIDORM","lat":38.533639,"lon":-0.16225,"tipoVenta":"P","horario":"L-D: 07:00-23:00","prices":{"GA":1.615,"G95E5":1.669,"G98E5":1.809,"GP":1.705}},{"id":"3430","name":"GALP","address":"CARRETERA N-332 KM. 124,5, BENIDORM","lat":38.558056,"lon":-0.101917,"tipoVenta":"P","horario":"L-D: 06:00-22:00","prices":{"GA":1.519,"G95E5":1.569,"G98E5":1.719,"GP":1.569}},{"id":"3429","name":"GALP","address":"CARRETERA N-332 KM. 124,5, BENIDORM","lat":38.557694,"lon":-0.1015,"tipoVenta":"P","horario":"L-D: 06:00-22:00","prices":{"GA":1.519,"G95E5":1.569,"G98E5":1.719,"GP":1.569}},{"id":"15012","name":"PETROENERGY","address":"AVENIDA COMUNIDAD VALENCIANA- CAMÍ DEL PALASIET, 2, BENIDORM","lat":38.551139,"lon":-0.109778,"tipoVenta":"P","horario":"L-D: 24H","prices":{"GA":1.489,"G95E5":1.489}},{"id":"3598","name":"BP EUROBENIDORM","address":"AVENIDA DOCTOR SEVERO OCHOA, S/N, BENIDORM","lat":38.543139,"lon":-0.102722,"tipoVenta":"P","horario":"L-D: 24H","prices":{"GA":1.615,"G95E5":1.669,"G98E5":1.809,"GP":1.705}},{"id":"16225","name":"FUSPRA ENERGY","address":"AVENIDA COMUNITAT VALENCIANA, 36, BENIDORM","lat":38.5545,"lon":-0.105389,"tipoVenta":"P","horario":"L-D: 24H","prices":{"GA":1.519,"G95E5":1.499}},{"id":"15391","name":"VCC ANOUER","address":"POLIGONO APR 3, 68, BENIDORM","lat":38.558833,"lon":-0.100972,"tipoVenta":"P","horario":"L-D: 24H","prices":{"ADBLUE":0.888,"GA":1.484,"G95E5":1.484}},{"id":"1896","name":"BP LA ISLETA","address":"AVENIDA JAIME I, 23, BENIDORM","lat":38.541722,"lon":-0.134139,"tipoVenta":"P","horario":"L-D: 24H","prices":{"GA":1.615,"G95E5":1.669,"G98E5":1.809,"GP":1.705}},{"id":"14628","name":"BENIEXPRESS","address":"CALLE ALCALDE FRANCISCO GONZALEZ FERNANDEZ, 32, BENIJOFAR","lat":38.077222,"lon":-0.745028,"tipoVenta":"P","horario":"L-D: 24H","prices":{"GA":1.539,"G95E5":1.579}},{"id":"16330","name":"PLENERGY","address":"CALLE ALICANTE, S/N, BENIJOFAR","lat":38.066056,"lon":-0.731222,"tipoVenta":"P","horario":"L-D: 24H","prices":{"GA":1.489,"G95E5":1.429}},{"id":"3393","name":"MEROIL","address":" JUAN DE LA CIERVA,13  POLIGONO INDUSRTIAL LAPEDRERA, , BENISSA","lat":38.72675,"lon":0.076583,"tipoVenta":"P","horario":"L-D: 24H","prices":{"ADBLUE":1.199,"GA":1.509,"G95E5":1.599,"G98E5":1.779,"GP":1.609,"GLP":0.939}},{"id":"14904","name":"PLENERGY","address":"AVENIDA EUROPA, 12, BENISSA","lat":38.717667,"lon":0.059861,"tipoVenta":"P","horario":"L-D: 24H","prices":{"GA":1.509,"G95E5":1.585}},{"id":"14633","name":"BALLENOIL","address":"AVENIDA LAS MARINAS, 290, BENISSA","lat":38.665889,"lon":0.084944,"tipoVenta":"P","horario":"L-D: 24H","prices":{"GA":1.559,"G95E5":1.585,"GP":1.569}},{"id":"13381","name":"MASOIL BENISA","address":"AVINGUDA EUROPA, 34, BENISSA","lat":38.719222,"lon":0.060556,"tipoVenta":"P","horario":"L-D: 24H","prices":{"ADBLUE":1,"GA":1.559,"G95E5":1.599,"GLP":1.05}},{"id":"13579","name":"ROSELLO","address":"CALLE MARGENADORS DELS, 8, BENISSA","lat":38.718611,"lon":0.059389,"tipoVenta":"P","horario":"L-S: 08:00-20:00","prices":{"GA":1.467,"G95E5":1.559}},{"id":"8795","name":"BP BENISSA","address":"AVENIDA EUROPA, 8, BENISSA","lat":38.718139,"lon":0.060194,"tipoVenta":"P","horario":"L-D: 06:00-22:00","prices":{"GA":1.645,"G95E5":1.665,"G98E5":1.805,"GP":1.735}},{"id":"13780","name":"VCC BENISSA","address":"CARRETERA MORAIRA-CALPE KM. 3, BENISSA","lat":38.677722,"lon":0.105778,"tipoVenta":"P","horario":"L-D: 24H","prices":{"GA":1.544,"G95E5":1.544}},{"id":"8349","name":"(SIN RÓTULO)","address":"CARRETERA CV-740 KM. 6,800, BENITACHELL","lat":38.738972,"lon":0.152139,"tipoVenta":"P","horario":"L-D: 07:00-22:00","prices":{"GA":1.599,"G95E5":1.649,"G98E5":1.779,"GLP":0.999}},{"id":"3458","name":"REPSOL","address":"CARRETERA ALCOY - VILLENA KM. 38,2, BIAR","lat":38.630583,"lon":-0.786556,"tipoVenta":"P","horario":"L-V: 07:00-21:30; S: 07:00-15:30","prices":{"ADBLUE":0.92,"GA":1.639,"G95E5":1.649,"G98E5":1.799,"GB":1.499}},{"id":"15622","name":"PLENERGY","address":"POLIGONO SECTOR D10, 8, BIGASTRO","lat":38.064861,"lon":-0.899,"tipoVenta":"P","horario":"L-D: 24H","prices":{"GA":1.529,"G95E5":1.559}},{"id":"13879","name":"BIGASOIL","address":"CALLE DEL PROGRESO, 24, BIGASTRO","lat":38.059056,"lon":-0.884611,"tipoVenta":"P","horario":"L-D: 24H","prices":{"ADBLUE":1,"GA":1.539,"G95E5":1.569}},{"id":"3445","name":"REPSOL","address":"POLIGONO APATEL, 6, BIGASTRO","lat":38.059194,"lon":-0.885222,"tipoVenta":"P","horario":"L-D: 06:00-22:00","prices":{"GA":1.699,"G95E5":1.679,"G98E5":1.869}},{"id":"13006","name":"ATLANTIS EXPRESS","address":"CALLE EL PI, 1, BUSOT","lat":38.477806,"lon":-0.424194,"tipoVenta":"P","horario":"L-D: 24H","prices":{"ADBLUE":0.999,"GA":1.559,"G95E5":1.599}},{"id":"12442","name":"REPSOL","address":"CARRETERA CV913 KM. 1, CALLOSA DE SEGURA","lat":38.125694,"lon":-0.867333,"tipoVenta":"P","horario":"L-D: 06:00-22:00","prices":{"GA":1.589,"G95E5":1.649,"G98E5":1.799}},{"id":"3575","name":"PETRONOR","address":"CARRETERA N-340 KM. 692,9, CALLOSA DE SEGURA","lat":38.143139,"lon":-0.927583,"tipoVenta":"P","horario":"L-V: 06:00-22:00; S: 07:00-15:00; D: 08:00-14:00","prices":{"GA":1.629,"G95E5":1.659}},{"id":"12401","name":"BP OIL ESPAÑA, S.A.U.","address":"CARRETERA CATRAL KM. 0,300, CALLOSA DE SEGURA","lat":38.12775,"lon":-0.861861,"tipoVenta":"P","horario":"L-V: 06:00-22:00; S-D: 07:00-22:00","prices":{"ADBLUE":0.9,"GA":1.609,"G95E5":1.649,"G98E5":1.791,"GP":1.699}},{"id":"15307","name":"RITOR DIESEL","address":"BARRIO SAN JOSE DRCHA, 70, CALLOSA DE SEGURA","lat":38.130583,"lon":-0.858917,"tipoVenta":"P","horario":"L-D: 07:30-21:30","prices":{"GA":1.499,"G95E5":1.499,"GP":1.529}},{"id":"3669","name":"REPSOL","address":"CALLE SAN ISIDRO, 10, CALLOSA D'EN SARRIA","lat":38.6495,"lon":-0.121194,"tipoVenta":"P","horario":"L-D: 07:00-22:00","prices":{"GA":1.639,"G95E5":1.669,"G98E5":1.799,"GP":1.779,"GB":1.489}},{"id":"1960","name":"Q8","address":"AVENIDA AV DIPUTACION S/N, , CALPE","lat":38.646306,"lon":0.040556,"tipoVenta":"P","horario":"L-D: 24H","prices":{"GA":1.469,"G95E5":1.449,"G98E5":1.569,"GP":1.539}},{"id":"3639","name":"CALPE AUTOMOCION","address":"PARTIDA ESTACION II, 6, CALPE","lat":38.653028,"lon":0.037306,"tipoVenta":"P","horario":"L-D: 24H","prices":{"GA":1.489,"G95E5":1.459,"G98E5":1.609,"GP":1.545}},{"id":"13667","name":"GASEXPRESS","address":"AVENIDA DIPUTACION, 35, CALPE","lat":38.646306,"lon":0.04175,"tipoVenta":"P","horario":"L-D: 24H","prices":{"GA":1.457,"G95E5":1.437}},{"id":"15350","name":"COFRADIA DE PESCADORES","address":"AVENIDA DEL PORT, 15/41, CALPE","lat":38.637306,"lon":0.06925,"tipoVenta":"P","horario":"L-V: 08:30-13:30 y 15:00-19:00","prices":{"GA":1.479,"G95E5":1.459,"GP":1.579}},{"id":"3512","name":"REPSOL","address":"CALLE L ESPORT, 2, CALPE","lat":38.645444,"lon":0.050278,"tipoVenta":"P","horario":"L-D: 24H","prices":{"ADBLUE":1.65,"GA":1.609,"G95E5":1.655,"G98E5":1.769}},{"id":"1906","name":"DRZ","address":"AVENIDA VALL DE L'AGUART, 11, CALPE","lat":38.645694,"lon":0.052306,"tipoVenta":"P","horario":"L-D: 07:00-22:00","prices":{"GA":1.562,"G95E5":1.633,"G98E5":1.769}},{"id":"13958","name":"AUTOFUEL LOW COST","address":"AVINGUDA VALL DE LAGUART, 5, CALPE","lat":38.64575,"lon":0.051139,"tipoVenta":"P","horario":"L-D: 24H","prices":{"GA":1.507,"G95E5":1.487}},{"id":"9245","name":"CALPE AUTOMOCION II","address":"PARTIDA ESTACION II, 6, CALPE","lat":38.652972,"lon":0.037806,"tipoVenta":"P","horario":"L-D: 24H","prices":{"ADBLUE":1.3,"GA":1.509,"G95E5":1.479,"G98E5":1.619,"GP":1.575}},{"id":"3568","name":"REPSOL","address":"CARRETERA N-332 KM. 122,5, CAMPELLO (EL)","lat":38.450278,"lon":-0.374361,"tipoVenta":"P","horario":"L-V: 07:00-21:00; S-D: 08:00-21:00","prices":{"GA":1.619,"G95E5":1.675,"G98E5":1.845,"GP":1.729,"GLP":1.085}},{"id":"1941","name":"GALP","address":"CALLE SAN BARTOLOME, 33, CAMPELLO (EL)","lat":38.418806,"lon":-0.393167,"tipoVenta":"P","horario":"L-D: 06:00-22:00","prices":{"GA":1.589,"G95E5":1.619,"G98E5":1.769,"GP":1.679}},{"id":"14520","name":"GASEXPRESS CAMPELLO","address":"CALLE SAN RAMON, 125, CAMPELLO (EL)","lat":38.4325,"lon":-0.397194,"tipoVenta":"P","horario":"L-D: 24H","prices":{"GA":1.429,"G95E5":1.379}},{"id":"3665","name":"CAMPELLO - GOTETA II","address":"CALLE INFANTA, 31, CAMPELLO (EL)","lat":38.424083,"lon":-0.401389,"tipoVenta":"P","horario":"L-V: 06:00-23:00; S-D: 07:00-23:00","prices":{"GA":1.559,"G95E5":1.599,"GP":1.629}},{"id":"9651","name":"SHELL","address":"C/ SAN RAMON, 109, CAMPELLO (EL)","lat":38.430639,"lon":-0.399389,"tipoVenta":"P","horario":"L-D: 06:00-22:00","prices":{"GA":1.559,"G95E5":1.599,"G98E5":1.739,"GP":1.629}},{"id":"16094","name":"PETROPRIX","address":"URBANIZACIÓN ABAYNA, 21, CAMPELLO (EL)","lat":38.439556,"lon":-0.387389,"tipoVenta":"P","horario":"L-D: 24H","prices":{"GA":1.429,"G95E5":1.379}},{"id":"3570","name":"REPSOL","address":"CALLE SAN RAMON 8, , CAMPELLO (EL)","lat":38.424639,"lon":-0.406444,"tipoVenta":"P","horario":"L-D: 06:30-22:00","prices":{"GA":1.619,"G95E5":1.639}},{"id":"3567","name":"PETRONOR","address":"CARRETERA N-332 KM. 122, CAMPELLO (EL)","lat":38.450167,"lon":-0.373611,"tipoVenta":"P","horario":"L: 06:00-22:00","prices":{"GA":1.619,"G95E5":1.675,"G98E5":1.845}},{"id":"11545","name":"REPSOL","address":"CARRETERA CASTALLA ALICANTE, CV 815 KM. 5,7, CASTALLA","lat":38.57825,"lon":-0.654917,"tipoVenta":"P","horario":"L-D: 06:00-22:00","prices":{"ADBLUE":0.97,"GA":1.635,"G95E5":1.679,"G98E5":1.819,"GB":1.419}},{"id":"14136","name":"MASOIL CASTALLA","address":"CALLE SAN VICENTE DEL RASPEIG, 4, CASTALLA","lat":38.596361,"lon":-0.663889,"tipoVenta":"P","horario":"L-D: 24H","prices":{"ADBLUE":1,"GA":1.559,"G95E5":1.599,"GLP":1.05}},{"id":"15885","name":"LUZOIL","address":"AVENIDA IBI, 51, CASTALLA","lat":38.600667,"lon":-0.670139,"tipoVenta":"P","horario":"L-D: 24H","prices":{"GA":1.539,"G95E5":1.569}},{"id":"3675","name":"REPSOL","address":"AVENIDA DE IBI, 46, CASTALLA","lat":38.600944,"lon":-0.669611,"tipoVenta":"P","horario":"L-D: 06:00-22:00","prices":{"GA":1.629,"G95E5":1.659,"G98E5":1.829,"GP":1.729}},{"id":"1914","name":"BRIOGAS","address":"PURISIMA, 80, CATRAL","lat":38.167583,"lon":-0.803306,"tipoVenta":"P","horario":"L-D: 06:00-22:00","prices":{"GA":1.579,"G95E5":1.629,"G98E5":1.689,"GP":1.659,"GB":1.419}},{"id":"10306","name":"GASEXPRESS","address":"CARRETERA CATRAL- CALLOSA DEL SEGURA KM. 5,3, CATRAL","lat":38.148111,"lon":-0.828444,"tipoVenta":"P","horario":"L-D: 24H","prices":{"GA":1.469,"G95E5":1.449}},{"id":"3476","name":"REPSOL","address":"AVENIDA ALICANTE, 49, COCENTAINA","lat":38.717889,"lon":-0.45775,"tipoVenta":"P","horario":"L-D: 06:00-22:00","prices":{"GA":1.615,"G95E5":1.675,"G98E5":1.845}},{"id":"3647","name":"REPSOL","address":"CL AVENIDA PAIS VALENCIA, 117, COCENTAINA","lat":38.738722,"lon":-0.439694,"tipoVenta":"P","horario":"L-D: 06:00-22:00","prices":{"GA":1.645,"G95E5":1.645,"G98E5":1.815}},{"id":"3715","name":"GALP","address":"AVENIDA DE ALICANTE, 87, COCENTAINA","lat":38.715472,"lon":-0.463639,"tipoVenta":"P","horario":"L-D: 06:00-22:00","prices":{"GA":1.579,"G95E5":1.579,"G98E5":1.719,"GP":1.629}},{"id":"13901","name":"FUTURA PETROLIUM ","address":"AVENIDA ALTET L', 3, COCENTAINA","lat":38.733333,"lon":-0.441806,"tipoVenta":"P","horario":"L-D: 24H","prices":{"GA":1.489,"G95E5":1.469}},{"id":"15728","name":"PETROPRIX","address":"AVENIDA DE XATIVA, 31, COCENTAINA","lat":38.750778,"lon":-0.439,"tipoVenta":"P","horario":"L-D: 24H","prices":{"GA":1.489,"G95E5":1.429}},{"id":"15089","name":"LA 23","address":"AVENIDA ALACANT, 64, COCENTAINA","lat":38.717972,"lon":-0.458722,"tipoVenta":"P","horario":"L-D: 24H","prices":{"GA":1.519,"G95E5":1.517}},{"id":"3714","name":"GALP","address":"AVENIDA AVENIDA DE ALICANTE, 104, COCENTAINA","lat":38.715167,"lon":-0.463167,"tipoVenta":"P","horario":"L-D: 24H","prices":{"GA":1.509,"G95E5":1.509}},{"id":"16058","name":"PLENERGY","address":"CARRER PUJADA A SANT CRISTÒFOL, 4, COCENTAINA","lat":38.748667,"lon":-0.439778,"tipoVenta":"P","horario":"L-D: 24H","prices":{"GA":1.489,"G95E5":1.429}},{"id":"11117","name":"CARREFOUR","address":"AVENIDA AVDA. L'ALTET Nº 2, 2, COCENTAINA","lat":38.730639,"lon":-0.443278,"tipoVenta":"P","horario":"L-D: 24H","prices":{"GA":1.579,"G95E5":1.579,"G98E5":1.809,"GP":1.619}},{"id":"3577","name":"REPSOL","address":"AVENIDA DEL CARMEN, 94, COX","lat":38.147139,"lon":-0.889278,"tipoVenta":"P","horario":"L-D: 06:00-22:00","prices":{"GA":1.625,"G95E5":1.665,"G98E5":1.835,"GP":1.685}},{"id":"3711","name":"BP COX","address":"PASEO PRINCIPE DE ASTURIAS, S/N, COX","lat":38.143889,"lon":-0.898861,"tipoVenta":"P","horario":"L-D: 06:00-22:00","prices":{"ADBLUE":0.9,"GA":1.609,"G95E5":1.649,"G98E5":1.791,"GP":1.699}},{"id":"10090","name":"PEPE RAMON","address":"PARAJE DE SAN ISIDRO, S/Nº, COX","lat":38.141528,"lon":-0.899639,"tipoVenta":"P","horario":"L-S: 05:00-22:00; D: 07:00-22:00","prices":{"ADBLUE":0.9,"GA":1.569,"G95E5":1.619}},{"id":"8346","name":"MOSCARDÓ","address":"P. DE ELCHE, Nº 29-31, CREVILLENT","lat":38.248694,"lon":-0.797861,"tipoVenta":"P","horario":"L-D: 24H","prices":{"ADBLUE":0.91,"GA":1.589,"G95E5":1.629,"G98E5":1.779,"GP":1.679}},{"id":"3701","name":"REPSOL","address":"AUTOVIA A-37 KM. 728, CREVILLENT","lat":38.196472,"lon":-0.812333,"tipoVenta":"P","horario":"L-D: 24H","prices":{"GA":1.625,"G95E5":1.649,"G98E5":1.769,"GP":1.735,"GLP":1.045}},{"id":"10313","name":"BP","address":"POLIGONO I7, SN, CREVILLENT","lat":38.250861,"lon":-0.782583,"tipoVenta":"P","horario":"L-S: 06:00-22:00","prices":{"GA":1.599,"G95E5":1.639,"G98E5":1.789,"GP":1.689}},{"id":"3668","name":"REPSOL","address":"CARRETERA NACIONAL 340 KM. 707,1, CREVILLENT","lat":38.227222,"lon":-0.822528,"tipoVenta":"P","horario":"L-D: 07:00-22:00","prices":{"GA":1.625,"G95E5":1.649,"G98E5":1.819,"GP":1.735,"GB":1.509}},{"id":"3700","name":"REPSOL","address":"AUTOVIA A-37 KM. 728,2, CREVILLENT","lat":38.193028,"lon":-0.812639,"tipoVenta":"P","horario":"L-D: 00:00-23:59","prices":{"GA":1.639,"G95E5":1.665,"G98E5":1.825,"GP":1.739}},{"id":"10728","name":"BP  POLIGONO CREVILLENTE","address":"POLIGONO I PARCELA 10, S/N, CREVILLENT","lat":38.244333,"lon":-0.797861,"tipoVenta":"P","horario":"L-V: 06:00-22:00; S-D: 07:00-22:00","prices":{"GA":1.619,"G95E5":1.649,"G98E5":1.789,"GP":1.709}},{"id":"3478","name":"REPSOL","address":"CR CV-875 ,P.K. 10,5, CREVILLENT","lat":38.233111,"lon":-0.791083,"tipoVenta":"P","horario":"L-D: 24H","prices":{"GA":1.629,"G95E5":1.659,"G98E5":1.829,"GLP":1.065}},{"id":"8347","name":"MOSCARDÓ","address":"P. DE ELCHE, Nº 29-31, CREVILLENT","lat":38.249167,"lon":-0.798056,"tipoVenta":"P","horario":"L-V: 06:00-22:00; S: 06:00-14:00","prices":{"GA":1.589,"G95E5":1.629,"G98E5":1.779,"GP":1.679}},{"id":"14864","name":"HAM","address":"AUTOVIA A7 KM. 526, CREVILLENT","lat":38.233167,"lon":-0.791,"tipoVenta":"P","horario":"L-D: 24H","prices":{"GNC":1.464,"GNL":1.419}},{"id":"15041","name":"PLENERGY","address":"PASEO DE ELCHE, 7, CREVILLENT","lat":38.248167,"lon":-0.801139,"tipoVenta":"P","horario":"L-D: 24H","prices":{"GA":1.479,"G95E5":1.515}},{"id":"15201","name":"GASDEN","address":"CARRETERA LAS MARINAS KM. 177, DENIA","lat":38.858444,"lon":0.056806,"tipoVenta":"P","horario":"L-D: 24H","prices":{"ADBLUE":0.88,"GA":1.558,"G95E5":1.598,"GLP":0.999}},{"id":"13231","name":"TECKMAR","address":"PARTIDA MADRIGUERES SUD, 25, DENIA","lat":38.837306,"lon":0.084556,"tipoVenta":"P","horario":"L-D: 24H","prices":{"GA":1.557,"G95E5":1.577}},{"id":"3541","name":"REPSOL","address":"CALLE AVENIDA VALENCIA, 44, DENIA","lat":38.839583,"lon":0.098194,"tipoVenta":"P","horario":"L-D: 24H","prices":{"GA":1.635,"G95E5":1.639,"G98E5":1.759}},{"id":"12469","name":"REPSOL COMERCIAL","address":"PARTIDA MADRIGUERES SUD, 61, DENIA","lat":38.835694,"lon":0.09375,"tipoVenta":"P","horario":"L-D: 24H","prices":{"GA":1.61,"G95E5":1.62}},{"id":"13036","name":"BP","address":"AVENIDA MONTGO, 34, DENIA","lat":38.832667,"lon":0.102111,"tipoVenta":"P","horario":"L-D: 06:00-23:00","prices":{"GA":1.609,"G95E5":1.629,"G98E5":1.759,"GP":1.749}},{"id":"13558","name":"SHELL","address":"CAMINO SANTA LLÚCIA, 1, DENIA","lat":38.834083,"lon":0.113222,"tipoVenta":"P","horario":"L-D: 24H","prices":{"GA":1.539,"G95E5":1.559}},{"id":"16401","name":"E.S DENIA","address":"PARTIDA MADRIGUERES NORD, 20, DENIA","lat":38.837694,"lon":0.087,"tipoVenta":"P","horario":"L-D: 24H","prices":{"GA":1.529,"G95E5":1.559}},{"id":"3725","name":"GALP","address":"CARRETERA DENIA A ONDARA C-3311 KM. 0,5, DENIA","lat":38.839,"lon":0.094417,"tipoVenta":"P","horario":"L-D: 06:00-22:00","prices":{"GA":1.549,"G98E5":1.739,"GP":1.639}},{"id":"8348","name":"MOSCARDÓ","address":"CTRA. LAS MARINAS km 0,85, DENIA","lat":38.848333,"lon":0.099722,"tipoVenta":"P","horario":"L-D: 06:00-22:00","prices":{"ADBLUE":0.91,"GA":1.539,"G95E5":1.579,"G98E5":1.739,"GP":1.619}},{"id":"16145","name":"PLENERGY","address":"PARTIDA MADRIGUERES NORD, 9, DENIA","lat":38.837917,"lon":0.091972,"tipoVenta":"P","horario":"L-D: 24H","prices":{"GA":1.499,"G95E5":1.529}},{"id":"3518","name":"REPSOL","address":"CALLE MAESTRO SERRANO, 1, DOLORES","lat":38.139722,"lon":-0.774889,"tipoVenta":"P","horario":"L-D: 06:00-22:00","prices":{"ADBLUE":0.999,"GA":1.629,"G95E5":1.649,"G98E5":1.779}},{"id":"3438","name":"CEPSA","address":"CARRETERA AP-3061 KM. 15,5, DOLORES","lat":38.140889,"lon":-0.748556,"tipoVenta":"P","horario":"L-V: 07:00-20:00","prices":{"GA":1.674,"G95E5":1.664,"GP":1.744,"GB":1.544}},{"id":"1895","name":"MAYAYO","address":"CARRETERA CV905 KM. 0,800, DOLORES","lat":38.131278,"lon":-0.775194,"tipoVenta":"P","horario":"L-D: 06:00-22:00","prices":{"GA":1.579,"G95E5":1.629,"G98E5":1.689,"GP":1.659,"GB":1.419}},{"id":"3621","name":"REPSOL","address":"CL AVENIDA DE ALICANTE, 72, ELCHE/ELX","lat":38.269472,"lon":-0.682194,"tipoVenta":"P","horario":"L-V: 06:00-22:00; S-D: 07:00-22:00","prices":{"GA":1.619,"G95E5":1.639,"G98E5":1.809,"GP":1.679}},{"id":"1880","name":"LA ESTACION","address":"AVENIDA ALCALDE VICENTE QUILES, 4, ELCHE/ELX","lat":38.2725,"lon":-0.690833,"tipoVenta":"P","horario":"L-D: 06:00-23:00","prices":{"GA":1.591,"G95E5":1.619,"G98E5":1.759,"GP":1.653}},{"id":"8306","name":"SHELL","address":"CALLE MIGUEL SERVET, 4, ELCHE/ELX","lat":38.298056,"lon":-0.614472,"tipoVenta":"P","horario":"L-V: 06:30-22:30; S: 06:30-20:30; D: 08:00-16:00","prices":{"GA":1.599,"G95E5":1.649,"G98E5":1.819,"GP":1.659}},{"id":"3562","name":"E.S. EL POLIGONO","address":"CALLE MALLORCA, 12, ELCHE/ELX","lat":38.269944,"lon":-0.67075,"tipoVenta":"P","horario":"L-J: 06:30-23:00; V: 06:30-23:59; S: 07:00-23:59; D: 07:00-23:00","prices":{"GA":1.591,"G95E5":1.626,"G98E5":1.778,"GP":1.649}},{"id":"14714","name":"PLENERGY","address":"CALLE ALICANTE-ALTET, 122, ELCHE/ELX","lat":38.271583,"lon":-0.673944,"tipoVenta":"P","horario":"L-D: 24H","prices":{"GA":1.495,"G95E5":1.535}},{"id":"11715","name":"CONFORT AUTO","address":"CALLE SANTIAGO RAMON Y CAJAL, 35, ELCHE/ELX","lat":38.296528,"lon":-0.614861,"tipoVenta":"P","horario":"L-V: 06:00-22:00; S: 07:00-14:00","prices":{"ADBLUE":1.05,"GA":1.539,"G95E5":1.515,"G98E5":1.719,"GP":1.699}},{"id":"15095","name":"GM OIL ELCHE","address":"CALLE GALILEO GALILEI, 14, ELCHE/ELX","lat":38.288139,"lon":-0.611667,"tipoVenta":"P","horario":"L: 24H","prices":{"GA":1.459,"G95E5":1.469}},{"id":"3615","name":"CEPSA LA GALIA","address":"PARTIDA ALTABIX.POL. 1 NO 203 (AV DEL BIMILENARIO S/N), ELCHE/ELX","lat":38.283139,"lon":-0.684083,"tipoVenta":"P","horario":"L-D: 24H","prices":{"GA":1.593,"G95E5":1.643,"G98E5":1.813,"GP":1.653}},{"id":"1882","name":"ABIERTO (SERVICIO ATENDIDO)","address":"PARTIDA ALTABIX POLIGONO 3   (CAMINO DE CASTILLA), 37, ELCHE/ELX","lat":38.29325,"lon":-0.675417,"tipoVenta":"P","horario":"L-D: 06:30-22:00","prices":{"ADBLUE":0.9,"GA":1.595,"G95E5":1.639,"G98E5":1.809,"GP":1.595}},{"id":"3726","name":"MORA","address":"CALLE ALMANSA, 62, ELCHE/ELX","lat":38.278972,"lon":-0.719639,"tipoVenta":"P","horario":"L-J: 06:00-23:00; V-S: 06:00-23:59; D: 06:30-23:00","prices":{"GA":1.591,"G95E5":1.638,"G98E5":1.808,"GP":1.651}},{"id":"3748","name":"REPSOL","address":"AVENIDA CREVILLENTE, 5, ELCHE/ELX","lat":38.260389,"lon":-0.71825,"tipoVenta":"P","horario":"L-D: 06:00-22:00","prices":{"GA":1.619,"G95E5":1.645,"G98E5":1.815,"GP":1.719}},{"id":"13870","name":"GASOLINERA D'ELX (S. ATENDIDO)","address":"AVINGUDA DE CREVILLENTE, 4, ELCHE/ELX","lat":38.261444,"lon":-0.717444,"tipoVenta":"P","horario":"L-V: 07:00-22:00; S: 08:00-22:00; D: 08:00-21:30","prices":{"ADBLUE":0.95,"GA":1.485,"G95E5":1.519,"GP":1.535}},{"id":"11118","name":"CARREFOUR","address":"CARRETERA ALICANTE - MURCIA KM. 53, ELCHE/ELX","lat":38.258583,"lon":-0.73025,"tipoVenta":"P","horario":"L-D: 24H","prices":{"GA":1.559,"G95E5":1.609,"G98E5":1.779,"GP":1.599}},{"id":"12276","name":"BP ALJUB","address":"CALLE ECUADOR, 12, ELCHE/ELX","lat":38.264139,"lon":-0.72375,"tipoVenta":"P","horario":"L-D: 07:00-23:00","prices":{"GA":1.593,"G95E5":1.651,"G98E5":1.807,"GP":1.699}},{"id":"15604","name":"PLENERGY","address":"CALLE ALCORCÓN, 27, ELCHE/ELX","lat":38.263639,"lon":-0.723694,"tipoVenta":"P","horario":"L-D: 24H","prices":{"GA":1.479,"G95E5":1.515}},{"id":"3709","name":"BALLENOIL","address":"CARRETERA N-340A KM. 716,3, ELCHE/ELX","lat":38.258694,"lon":-0.734333,"tipoVenta":"P","horario":"L-D: 24H","prices":{"GA":1.479,"G95E5":1.515,"GP":1.489}},{"id":"15710","name":"BALLENOIL","address":"AVINGUDA DE CREVILLENTE, 36, ELCHE/ELX","lat":38.260222,"lon":-0.722333,"tipoVenta":"P","horario":"L-D: 24H","prices":{"GA":1.479,"G95E5":1.515,"GP":1.489}},{"id":"15698","name":"PETROPRIX","address":"CALLE PANAMA, S/N, ELCHE/ELX","lat":38.261444,"lon":-0.721806,"tipoVenta":"P","horario":"L-D: 24H","prices":{"GA":1.479,"G95E5":1.515}},{"id":"13648","name":"E.S. PLUSOIL","address":"CALLE PANAMA, 5, ELCHE/ELX","lat":38.261528,"lon":-0.718056,"tipoVenta":"P","horario":"L-D: 24H","prices":{"GA":1.479,"G95E5":1.519}},{"id":"3691","name":"REPSOL","address":"CAMINO CAMINO VIEJO ELCHE/SANTA-POLA KM 0,200, 72, ELCHE/ELX","lat":38.257917,"lon":-0.678278,"tipoVenta":"P","horario":"L-D: 06:00-22:00","prices":{"ADBLUE":0.92,"GA":1.629,"G95E5":1.659,"G98E5":1.789}},{"id":"3685","name":"REPSOL","address":"CARRETERA CV-8500 KM. 3,6, ELCHE/ELX","lat":38.251028,"lon":-0.698306,"tipoVenta":"P","horario":"L-J: 00:00-02:00 y 06:00-23:59; V-S: 00:00-23:59; D: 00:00-02:00 y 06:00-23:59","prices":{"GA":1.619,"G95E5":1.645,"G98E5":1.765,"GP":1.679,"GLP":1.045}},{"id":"13586","name":"PETROPRIX","address":"RONDA VALL D'UIXO, 52, ELCHE/ELX","lat":38.283917,"lon":-0.714278,"tipoVenta":"P","horario":"L-D: 24H","prices":{"GA":1.479,"G95E5":1.515}},{"id":"14469","name":"BALLENOIL","address":"CALLE SENIJA, 2, ELCHE/ELX","lat":38.282583,"lon":-0.712472,"tipoVenta":"P","horario":"L-D: 24H","prices":{"GA":1.479,"G95E5":1.515}},{"id":"3555","name":"REPSOL","address":"AV DE NOVELDA, 128, ELCHE/ELX","lat":38.278306,"lon":-0.716694,"tipoVenta":"P","horario":"L-D: 06:00-22:00","prices":{"GA":1.629,"G95E5":1.645,"G98E5":1.815,"GP":1.679}},{"id":"12301","name":"GASOLINERA D'ELX (S. ATENDIDO)","address":"CALLE PETRER, 7, ELCHE/ELX","lat":38.277806,"lon":-0.718417,"tipoVenta":"P","horario":"L-V: 07:00-22:00; S-D: 08:00-14:00","prices":{"ADBLUE":0.95,"GA":1.485,"G95E5":1.519,"G98E5":1.625,"GP":1.535}},{"id":"14094","name":"PLENERGY","address":"CALLE ALMANSA, 19, ELCHE/ELX","lat":38.280694,"lon":-0.715,"tipoVenta":"P","horario":"L-D: 24H","prices":{"GA":1.479,"G95E5":1.515}},{"id":"9392","name":"MORA","address":"AVENIDA NOVELDA, 188, ELCHE/ELX","lat":38.282778,"lon":-0.721944,"tipoVenta":"P","horario":"L-V: 06:00-21:00","prices":{"GA":1.591,"G95E5":1.638,"G98E5":1.808,"GP":1.651}},{"id":"1935","name":"SHELL","address":"C/ SOR JOSEFA ALCORTA 71 (ESQ.CTRA.CIRCUNVALACIÓN, ELCHE/ELX","lat":38.2525,"lon":-0.703056,"tipoVenta":"P","horario":"L-D: 06:00-00:00","prices":{"GA":1.584,"G95E5":1.624,"G98E5":1.764,"GP":1.664,"GLP":1.019}},{"id":"3742","name":"MORA","address":"AVENIDA ANTONIO MACHADO, 51, ELCHE/ELX","lat":38.261861,"lon":-0.708806,"tipoVenta":"P","horario":"L-J: 06:30-23:00; V: 06:30-23:59; S: 07:00-23:59; D: 07:00-23:00","prices":{"GA":1.591,"G95E5":1.638,"G98E5":1.778,"GP":1.661}},{"id":"9649","name":"REPSOL","address":"AVENIDA ILLICE, 22, TORRELLANO","lat":38.29175,"lon":-0.592472,"tipoVenta":"P","horario":"L-D: 24H","prices":{"GA":1.649,"G95E5":1.669,"G98E5":1.819,"GP":1.699,"GB":1.469}},{"id":"8304","name":"GALP","address":"Autovía del Mediterráneo (A-7) a Valencia, TORRELLANO","lat":38.307972,"lon":-0.60625,"tipoVenta":"P","horario":"L-D: 24H","prices":{"ADBLUE":0.799,"GA":1.634,"G95E5":1.664,"G98E5":1.784,"GP":1.724}},{"id":"8305","name":"GALP","address":"Autovía del Mediterráneo (A-7) a Murcia, TORRELLANO","lat":38.309528,"lon":-0.605694,"tipoVenta":"P","horario":"L-D: 24H","prices":{"ADBLUE":0.799,"GA":1.634,"G95E5":1.664,"G98E5":1.784,"GP":1.724}},{"id":"3539","name":"REPSOL","address":"CARRETERA N-340, KM727 KM. 727, TORRELLANO","lat":38.286861,"lon":-0.614667,"tipoVenta":"P","horario":"L-V: 06:00-22:00; S: 08:00-14:00","prices":{"GA":1.635,"G95E5":1.639,"G98E5":1.809}},{"id":"12652","name":"PETROALACANT","address":"AVENIDA AEROPUERTO DEL TORRELLANO, 125, ALTET (EL)","lat":38.287472,"lon":-0.563472,"tipoVenta":"P","horario":"L: 24H","prices":{"GA":1.649,"GB":1.589}},{"id":"3483","name":"FTH","address":"CARRETERA ELCHE-ALTET KM. 10,1, ALTET (EL)","lat":38.278861,"lon":-0.562944,"tipoVenta":"P","horario":"L-D: 00:00-23:59","prices":{"ADBLUE":0.9,"GA":1.639,"G95E5":1.659,"G98E5":1.799,"GP":1.699}},{"id":"3552","name":"REPSOL","address":"AVENIDA CARTAGENA DE, 59, ALTET (EL)","lat":38.276,"lon":-0.538778,"tipoVenta":"P","horario":"L-D: 24H","prices":{"GA":1.679,"G95E5":1.699,"G98E5":1.839,"GP":1.729}},{"id":"3571","name":"REPSOL","address":"CARRETERA CV-865 KM. 3,6, PERLETA (LA)","lat":38.244861,"lon":-0.644583,"tipoVenta":"P","horario":"L-D: 06:00-22:00","prices":{"ADBLUE":0.999,"GA":1.609,"G95E5":1.649,"G98E5":1.779}},{"id":"10503","name":"MARINA DE LA PLANA","address":"PARTIDA LA MARINA, 307, ELCHE/ELX","lat":38.143611,"lon":-0.664417,"tipoVenta":"P","horario":"L-D: 07:00-23:00","prices":{"GA":1.639,"G95E5":1.629,"G98E5":1.749,"GP":1.759}},{"id":"11840","name":"CEPSA","address":"CARRETERA CV-875 KM. 6,2, ALGODA-MATOLA","lat":38.216611,"lon":-0.761417,"tipoVenta":"P","horario":"L-S: 07:00-22:00; D: 08:00-15:00","prices":{"GA":1.629,"G95E5":1.669,"GP":1.739,"GB":1.438}},{"id":"12581","name":"BP SAN ANTON","address":"CALLE ALGORFA, 2, ELCHE/ELX","lat":38.273778,"lon":-0.665417,"tipoVenta":"P","horario":"L-D: 06:00-23:00","prices":{"GA":1.615,"G95E5":1.645,"G98E5":1.785,"GP":1.705}},{"id":"3661","name":"REPSOL","address":"CARRETERA N-340 KM. 714,1, ELCHE/ELX","lat":38.256778,"lon":-0.74775,"tipoVenta":"P","horario":"L-S: 06:00-22:00; D: 08:00-18:00","prices":{"GA":1.619,"G95E5":1.645,"G98E5":1.815,"GP":1.719}},{"id":"3602","name":"REPSOL","address":"CARRETERA DOLORES DE KM. 8,3, ELCHE/ELX","lat":38.177111,"lon":-0.702111,"tipoVenta":"P","horario":"L-V: 07:00-21:00; S-D: 07:00-20:00","prices":{"GA":1.619,"G95E5":1.635,"GP":1.729,"GB":1.539}},{"id":"3560","name":"REPSOL","address":"CARRETERA CARRETERA ELCHE  LA MARINA KM. 6,7, HOYA (LA)","lat":38.196,"lon":-0.678611,"tipoVenta":"P","horario":"L: 06:00-22:00","prices":{"GA":1.659,"G95E5":1.669,"G98E5":1.829,"GB":1.479}},{"id":"13445","name":"GASEXPRESS","address":"CALLE MEDICO FEDERICO MARTINEZ PEREZ, 1, ELDA","lat":38.464944,"lon":-0.785361,"tipoVenta":"P","horario":"L-D: 24H","prices":{"GA":1.409,"G95E5":1.359}},{"id":"3408","name":"MOEVE","address":"AVENIDA MEDITERRANEO, S/N, ELDA","lat":38.460056,"lon":-0.782528,"tipoVenta":"P","horario":"L-D: 06:00-23:00","prices":{"GA":1.635,"G95E5":1.605,"G98E5":1.804,"GP":1.728,"GLP":0.984}},{"id":"3719","name":"V2 GASOLINERAS","address":"CARRETERA CTRA.ELDA-MONOVAR KM 13 KM. 13, ELDA","lat":38.450306,"lon":-0.812833,"tipoVenta":"P","horario":"L-D: 06:00-22:00","prices":{"GA":1.499,"G95E5":1.459}},{"id":"13688","name":"REPSOL","address":"AVENIDA CENTRO EXCURSIONISTA, S/N, ELDA","lat":38.470083,"lon":-0.80625,"tipoVenta":"P","horario":"L-D: 06:00-22:00","prices":{"GA":1.639,"G95E5":1.669,"G98E5":1.839,"GP":1.739}},{"id":"15932","name":"PLENERGY","address":"AVENIDA MONOVAR, 18, ELDA","lat":38.474528,"lon":-0.804583,"tipoVenta":"P","horario":"L-D: 24H","prices":{"GA":1.399,"G95E5":1.349}},{"id":"3641","name":"CEPSA","address":"CALLE ROMERO,2 - AVDA. LIBERTAD, S/N, ELDA","lat":38.491972,"lon":-0.795194,"tipoVenta":"P","horario":"L-D: 06:00-23:00","prices":{"GA":1.645,"G95E5":1.625,"GP":1.739}},{"id":"3578","name":"REPSOL","address":"CARRETERA C-3213 KM. 15,700, ELDA","lat":38.473944,"lon":-0.80475,"tipoVenta":"P","horario":"L-D: 06:00-22:00","prices":{"GA":1.639,"G95E5":1.669,"G98E5":1.839,"GP":1.739}},{"id":"9117","name":"SHELL","address":"AVENIDA MEDITERRANEO, 16, ELDA","lat":38.467333,"lon":-0.78775,"tipoVenta":"P","horario":"L-D: 06:00-23:59","prices":{"GA":1.614,"G95E5":1.604,"G98E5":1.744,"GP":1.694}},{"id":"11984","name":"REPOSTANDO","address":"CALLE CONDES DE ELDA, SN, ELDA","lat":38.484944,"lon":-0.810639,"tipoVenta":"P","horario":"L-D: 06:00-22:00","prices":{"ADBLUE":1.077,"GA":1.419,"G95E5":1.399,"G98E5":1.399,"GP":1.519}},{"id":"1951","name":"CARREFOUR","address":"CARRETERA NUEVA FINESTRATA LA CALA KM. 5, FINESTRAT","lat":38.537389,"lon":-0.175167,"tipoVenta":"P","horario":"L-D: 24H","prices":{"GA":1.579,"G95E5":1.589,"G98E5":1.769,"GP":1.619}},{"id":"11913","name":"CEPSA","address":"AVENIDA AUXIAS MARCH, SN, FINESTRAT","lat":38.534806,"lon":-0.16975,"tipoVenta":"P","horario":"L-V: 06:30-22:00; S-D: 07:00-22:00","prices":{"GA":1.6,"G95E5":1.636,"GP":1.709}},{"id":"16304","name":"PLENERGY","address":"CALLE ALACANT, 25, FINESTRAT","lat":38.53825,"lon":-0.181556,"tipoVenta":"P","horario":"L-D: 24H","prices":{"GA":1.419,"G95E5":1.437}},{"id":"11126","name":"REPSOL","address":"AVENIDA PAIS VALENCIA, 20, FINESTRAT","lat":38.536444,"lon":-0.180222,"tipoVenta":"P","horario":"L-D: 06:00-22:00","prices":{"GA":1.615,"G95E5":1.655,"G98E5":1.825,"GP":1.725}},{"id":"12061","name":"REPSOL","address":"AVENIDA PICASSO, 3, FINESTRAT","lat":38.533722,"lon":-0.17275,"tipoVenta":"P","horario":"L-D: 24H","prices":{"ADBLUE":1.319,"GA":1.589,"G95E5":1.629,"G98E5":1.799,"GP":1.699}},{"id":"13032","name":"PETROPRIX","address":"AVENIDA PICASSO, 41, FINESTRAT","lat":38.533194,"lon":-0.172639,"tipoVenta":"P","horario":"L-D: 24H","prices":{"GA":1.419,"G95E5":1.437}},{"id":"15028","name":"GM OIL","address":"AVENIDA MIGUEL HERNÁNDEZ, 11, FINESTRAT","lat":38.539417,"lon":-0.170444,"tipoVenta":"P","horario":"L-D: 24H","prices":{"GA":1.429,"G95E5":1.429}},{"id":"3697","name":"REPSOL","address":"AVENIDA FEDERICO GARCIA LORCA, 21, FINESTRAT","lat":38.538722,"lon":-0.172889,"tipoVenta":"P","horario":"L-D: 06:00-22:00","prices":{"GA":1.635,"G95E5":1.675,"G98E5":1.795}},{"id":"16492","name":"PLENERGY","address":"CALLE ACEQUIA DEL RIO, 37, FORMENTERA DEL SEGURA","lat":38.087889,"lon":-0.730722,"tipoVenta":"P","horario":"L-D: 24H","prices":{"GA":1.439,"G95E5":1.389}},{"id":"14525","name":"GASOLINERA DE FORMENTERA","address":"POLIGONO LOS NAZARIOS, C/LOS NAZARIOS, 8, FORMENTERA DEL SEGURA","lat":38.087611,"lon":-0.736889,"tipoVenta":"P","horario":"L-S: 06:00-22:00; D: 07:00-22:00","prices":{"ADBLUE":0.95,"GA":1.469,"G95E5":1.449,"GP":1.539}},{"id":"3655","name":"REPSOL","address":"CARRETERA N-332 KM. 187,5, GATA DE GORGOS","lat":38.768111,"lon":0.098639,"tipoVenta":"P","horario":"L-D: 07:00-21:00","prices":{"GA":1.639,"G95E5":1.645,"GP":1.749}},{"id":"16163","name":"GASDEN","address":"CARRETERA CARRETERA JAVEA,44 KM. 44, GATA DE GORGOS","lat":38.778278,"lon":0.085917,"tipoVenta":"P","horario":"L-D: 24H","prices":{"ADBLUE":0.88,"GA":1.529,"G95E5":1.567}},{"id":"14956","name":"JOSBERFUEL","address":"CALLE RIO EBRO, 1, GRANJA DE ROCAMORA","lat":38.154389,"lon":-0.882139,"tipoVenta":"P","horario":"L-D: 00:00-23:59","prices":{"GA":1.549,"G95E5":1.599}},{"id":"1942","name":"GALP","address":"AVENIDA JUAN CARLOS I, S/N, GRANJA DE ROCAMORA","lat":38.156,"lon":-0.889806,"tipoVenta":"P","horario":"L-D: 24H","prices":{"ADBLUE":0.799,"GA":1.599,"G95E5":1.639}},{"id":"15986","name":"PLENERGY","address":"CALLE MADRID, 40, GUARDAMAR DEL SEGURA","lat":38.095444,"lon":-0.661056,"tipoVenta":"P","horario":"L-D: 24H","prices":{"GA":1.559,"G95E5":1.609}},{"id":"11392","name":"REPSOL","address":"CARRETERA N-332 KM. 32,7, GUARDAMAR DEL SEGURA","lat":38.099472,"lon":-0.663861,"tipoVenta":"P","horario":"L-D: 06:00-22:00","prices":{"ADBLUE":0.999,"GA":1.635,"G95E5":1.659,"G98E5":1.769,"GLP":1.099}},{"id":"3694","name":"REPSOL","address":"CL MADRID, 20-24, GUARDAMAR DEL SEGURA","lat":38.095639,"lon":-0.659111,"tipoVenta":"P","horario":"L-D: 07:00-23:00","prices":{"GA":1.665,"G95E5":1.639,"G98E5":1.759,"GLP":1.085}},{"id":"14711","name":"SEVEN OIL","address":"CALLE FORNERS, 27, GUARDAMAR DEL SEGURA","lat":38.090917,"lon":-0.660611,"tipoVenta":"P","horario":"L-D: 24H","prices":{"GA":1.559,"G95E5":1.609}},{"id":"9303","name":"CEPSA","address":"CARRETERA NACIONAL 332 KM. 65,968, GUARDAMAR DEL SEGURA","lat":38.045,"lon":-0.659222,"tipoVenta":"P","horario":"L-D: 06:00-22:00","prices":{"GA":1.664,"G95E5":1.644,"GP":1.764}},{"id":"3657","name":"REPSOL","address":"CARRETERA N-332 KM. 32,7, GUARDAMAR DEL SEGURA","lat":38.099333,"lon":-0.664444,"tipoVenta":"P","horario":"L-D: 06:00-22:00","prices":{"ADBLUE":0.999,"GA":1.629,"G95E5":1.659,"G98E5":1.779,"GLP":1.099}},{"id":"3443","name":"MOEVE ","address":"CARRETERA CV 895 KM. 5,1, GUARDAMAR DEL SEGURA","lat":38.062278,"lon":-0.673472,"tipoVenta":"P","horario":"L-S: 07:00-21:30; D: 08:00-17:00","prices":{"ADBLUE":0.899,"GA":1.629,"G95E5":1.639,"GP":1.669,"GB":1.449}},{"id":"10502","name":"GÓMEZ Y SIRVENT","address":"PARTIDA LA REDONDA, S/N, GUARDAMAR DEL SEGURA","lat":38.094028,"lon":-0.66075,"tipoVenta":"P","horario":"L-D: 06:00-23:00","prices":{"GA":1.639,"G95E5":1.629,"G98E5":1.749,"GP":1.759}},{"id":"3572","name":"REPSOL","address":"AVINGUDA VIRGEN DE LAS NIEVES, S/N, HONDON DE LAS NIEVES","lat":38.310167,"lon":-0.849528,"tipoVenta":"P","horario":"L-S: 06:00-22:00","prices":{"GA":1.585,"G95E5":1.579,"GB":1.329}},{"id":"1911","name":"SANTA CRUZ","address":"CARRETERA CTRA. ARCHENA KM. 32, HONDON DE LOS FRAILES","lat":38.277611,"lon":-0.920417,"tipoVenta":"P","horario":"L-D: 06:30-21:00","prices":{"GA":1.545,"G95E5":1.539,"GP":1.545}},{"id":"11271","name":"CEPSA","address":"CALLE LEON (POLIGONO INDUSTRIAL L ALFAÇ III, 3, IBI","lat":38.607972,"lon":-0.593472,"tipoVenta":"P","horario":"L-D: 06:00-22:00","prices":{"ADBLUE":0.89,"GA":1.65,"G95E5":1.66,"GP":1.821}},{"id":"15018","name":"NEFT","address":"CALLE CARMEN MARIN GAITE, 10, IBI","lat":38.614333,"lon":-0.578222,"tipoVenta":"P","horario":"L-D: 24H","prices":{"GA":1.499,"G95E5":1.559,"GP":1.559}},{"id":"3635","name":"REPSOL","address":"AVENIDA JUAN CARLOS I, 2, IBI","lat":38.626556,"lon":-0.567917,"tipoVenta":"P","horario":"L-S: 06:00-22:00; D: 07:00-15:00","prices":{"GA":1.619,"G95E5":1.639,"G98E5":1.809,"GP":1.679}},{"id":"10305","name":"E.S. CAÑIZARES","address":"AVENIDA LA PROVINCIA, N, IBI","lat":38.616889,"lon":-0.585333,"tipoVenta":"P","horario":"L-D: 06:00-22:00","prices":{"ADBLUE":1,"GA":1.539,"G95E5":1.569,"G98E5":1.79,"GB":1.4}},{"id":"3467","name":"BP IBI","address":"CARRER ALBACETE, 13, 0, IBI","lat":38.614889,"lon":-0.587333,"tipoVenta":"P","horario":"L-D: 06:00-22:00","prices":{"ADBLUE":1,"GA":1.599,"G95E5":1.639,"G98E5":1.779,"GP":1.699}},{"id":"10026","name":"BP PETROBENE","address":"CARRETERA JACARILLA-BENEJUZAR KM. 2,5, JACARILLA","lat":38.062972,"lon":-0.859028,"tipoVenta":"P","horario":"L-D: 24H","prices":{"ADBLUE":0.85,"GA":1.669,"G95E5":1.649,"GP":1.769,"GB":1.499}},{"id":"10463","name":"CEPSA","address":"CARRETERA CV-95 KM. 10, JACARILLA","lat":38.041222,"lon":-0.855611,"tipoVenta":"P","horario":"L-V: 07:00-19:00; S: 08:00-13:00","prices":{"GA":1.689,"G95E5":1.699,"G98E5":1.799}},{"id":"10976","name":"MOEVE","address":"AVDA. GENERALITAT VALENCIANA, 4, JALON","lat":38.738444,"lon":-0.009028,"tipoVenta":"P","horario":"L: 06:00-22:00","prices":{"GA":1.714,"G95E5":1.674,"GP":1.794,"GB":1.584}},{"id":"15039","name":"Q8","address":"AVENIDA DEL TRENC D'ALBA, 47, JÁVEA/XÀBIA","lat":38.788917,"lon":0.170861,"tipoVenta":"P","horario":"L-D: 24H","prices":{"GA":1.569,"G95E5":1.629}},{"id":"3472","name":"REPSOL","address":"CARRETERA CV-739 KM. 1,5, JÁVEA/XÀBIA","lat":38.781861,"lon":0.179444,"tipoVenta":"P","horario":"L-D: 06:00-22:00","prices":{"GA":1.639,"G95E5":1.685,"G98E5":1.805,"GP":1.689,"GLP":1.049}},{"id":"11685","name":"MOEVE","address":"AVENIDA DEL PLA, 77, JÁVEA/XÀBIA","lat":38.784944,"lon":0.178667,"tipoVenta":"P","horario":"L-D: 06:00-22:00","prices":{"GA":1.664,"G95E5":1.674,"GP":1.744}},{"id":"3448","name":"BP","address":"CARRETERA JAVEA BENITACHELL KM. 7,093, JÁVEA/XÀBIA","lat":38.74075,"lon":0.150944,"tipoVenta":"P","horario":"L-D: 07:00-21:30","prices":{"GA":1.649,"G95E5":1.699,"G98E5":1.829,"GP":1.729}},{"id":"14713","name":"PLENERGY","address":"AVENIDA PALMELA, 47, JÁVEA/XÀBIA","lat":38.787472,"lon":0.167583,"tipoVenta":"P","horario":"L-D: 24H","prices":{"GA":1.519,"G95E5":1.585}},{"id":"3529","name":"REPSOL","address":"AVENIDA DEL PUERTO, 36, JÁVEA/XÀBIA","lat":38.79425,"lon":0.177222,"tipoVenta":"P","horario":"L-D: 07:00-22:00","prices":{"GA":1.635,"G95E5":1.685,"G98E5":1.805,"GP":1.745}},{"id":"3682","name":"REPSOL","address":"AVENIDA VALENCIA, SN, JÁVEA/XÀBIA","lat":38.785444,"lon":0.159972,"tipoVenta":"P","horario":"L-D: 06:00-22:00","prices":{"GA":1.645,"G95E5":1.685,"G98E5":1.805,"GP":1.745}},{"id":"3474","name":"PETRONOR","address":"CARRETERA CV-734 KM. 4,6, JÁVEA/XÀBIA","lat":38.776083,"lon":0.119861,"tipoVenta":"P","horario":"L-D: 06:00-22:00","prices":{"GA":1.629,"G95E5":1.699,"G98E5":1.809,"GP":1.739}},{"id":"3681","name":"REPSOL","address":"CARRETERA CV-739 KM. 2,9, JÁVEA/XÀBIA","lat":38.770556,"lon":0.186361,"tipoVenta":"P","horario":"L-D: 06:00-22:00","prices":{"GA":1.629,"G95E5":1.685,"G98E5":1.805,"GP":1.689}},{"id":"3424","name":"MOEVE","address":"AUTOVIA A-31 KM. 220, MONFORTE DEL CID","lat":38.369306,"lon":-0.704611,"tipoVenta":"P","horario":"L-D: 24H","prices":{"ADBLUE":1.1,"GA":1.729,"G95E5":1.689,"GP":1.869}},{"id":"12152","name":"BP","address":"GLORIETA JORGE JUAN, 86, MONFORTE DEL CID","lat":38.376306,"lon":-0.773694,"tipoVenta":"P","horario":"L-V: 06:00-22:00; S-D: 06:30-22:00","prices":{"GA":1.619,"G95E5":1.655,"G98E5":1.795,"GP":1.709}},{"id":"7979","name":"COOPERATIVA V. AGRICOLA MONFORTE DEL CID","address":"CAMINO CAMINO AZAGADOR, 2, MONFORTE DEL CID","lat":38.380861,"lon":-0.723111,"tipoVenta":"P","horario":"L-D: 06:00-00:00","prices":{"GA":1.545,"GB":1.349}},{"id":"3607","name":"BP","address":"AUTOVIA A-31 KM. 216, MONFORTE DEL CID","lat":38.387917,"lon":-0.736806,"tipoVenta":"P","horario":"L-D: 24H","prices":{"ADBLUE":1,"GA":1.635,"G95E5":1.675,"G98E5":1.815,"GP":1.725}},{"id":"3425","name":"MOEVE","address":"AUTOVIA A-31 KM. 220, MONFORTE DEL CID","lat":38.369833,"lon":-0.704556,"tipoVenta":"P","horario":"L-D: 24H","prices":{"ADBLUE":1.1,"GA":1.729,"G95E5":1.689,"GP":1.869}},{"id":"10300","name":"E.S. TEXAS","address":"CARRETERA NOVELDA-MONOVAR KM. 9,6, MONOVAR","lat":38.428444,"lon":-0.838083,"tipoVenta":"P","horario":"L-D: 07:00-22:00","prices":{"GA":1.519,"G95E5":1.499,"GP":1.539}},{"id":"3564","name":"E.S MONOVAR","address":"AVENIDA COMUNIDAD VALENCIANA, SN, MONOVAR","lat":38.434222,"lon":-0.839861,"tipoVenta":"P","horario":"L-S: 06:30-22:30; D: 08:00-21:00","prices":{"GA":1.559,"G95E5":1.549,"G98E5":1.649,"GP":1.639}},{"id":"3554","name":"REPSOL","address":"CARRETERA CR 3213 KM. 12, MONOVAR","lat":38.424667,"lon":-0.940028,"tipoVenta":"P","horario":"L-D: 06:00-22:00","prices":{"GA":1.619,"G95E5":1.655,"G98E5":1.825,"GB":1.509}},{"id":"16107","name":"GLOBAL OIL","address":"CALLE DAYA NUEVA 2, P.I. LEVANTE 2, 2, MONTESINOS (LOS)","lat":38.029972,"lon":-0.730972,"tipoVenta":"P","horario":"L: 24H","prices":{"GA":1.477,"G95E5":1.499}},{"id":"3460","name":"REPSOL","address":"CR CV-945  LO BLANC, 1,3 (A-340 km 1,36), MONTESINOS (LOS)","lat":38.029472,"lon":-0.730944,"tipoVenta":"P","horario":"L-D: 24H","prices":{"ADBLUE":0.999,"GA":1.619,"G95E5":1.649,"G98E5":1.779,"GB":1.499}},{"id":"3634","name":"PANAWAY ROAD","address":"CARRETERA N-340 KM. 808,6, MURO DEL ALCOY","lat":38.781889,"lon":-0.448444,"tipoVenta":"P","horario":"L-D: 06:00-22:00","prices":{"GA":1.489,"G95E5":1.469,"G98E5":1.599,"GP":1.489}},{"id":"3633","name":"PANAWAY ROAD","address":"CARRETERA N-340 KM. 808,6, MURO DEL ALCOY","lat":38.781417,"lon":-0.447889,"tipoVenta":"P","horario":"L-D: 24H","prices":{"GA":1.489,"G95E5":1.469,"G98E5":1.599,"GP":1.489}},{"id":"15739","name":"GALP","address":"AUTOVIA A7 KM. 0, MURO DEL ALCOY","lat":38.795111,"lon":-0.448194,"tipoVenta":"P","horario":"L-D: 06:00-22:00","prices":{"ADBLUE":0.799,"GA":1.599,"G95E5":1.589,"G98E5":1.729,"GP":1.649}},{"id":"11765","name":"REPSOL","address":"CARRETERA CV 700 KM. 6, MURO DEL ALCOY","lat":38.782028,"lon":-0.424694,"tipoVenta":"P","horario":"L-D: 06:00-22:00","prices":{"GA":1.719,"G95E5":1.719}},{"id":"14427","name":"GASOLPOP,S.L.","address":"CALLE DEL TRANSPORT, 25, MURO DEL ALCOY","lat":38.7795,"lon":-0.447417,"tipoVenta":"P","horario":"L-D: 24H","prices":{"GA":1.489,"G95E5":1.469}},{"id":"14518","name":"PETRANOIL STATION","address":"AVENIDA PAIS VALENCIÀ, 40, MURO DEL ALCOY","lat":38.781611,"lon":-0.430667,"tipoVenta":"P","horario":"L-D: 24H","prices":{"GA":1.489,"G95E5":1.469}},{"id":"14574","name":"REPSOL","address":"CARRETERA CV 800 KM. 0,750, MUTXAMEL","lat":38.427167,"lon":-0.434583,"tipoVenta":"P","horario":"L-D: 06:00-22:00","prices":{"ADBLUE":0.92,"GA":1.629,"G95E5":1.679,"G98E5":1.809}},{"id":"3419","name":"CEPSA","address":"AVENIDA ALCOY, S/N, MUTXAMEL","lat":38.426528,"lon":-0.450361,"tipoVenta":"P","horario":"L-D: 08:00-13:00 y 16:00-19:00","prices":{"GA":1.644,"G95E5":1.664,"G98E5":1.834,"GP":1.734,"GB":1.594}},{"id":"12827","name":"BP MUCHAMIEL","address":"CALLE OSSA MAJOR, 1, MUTXAMEL","lat":38.407,"lon":-0.463917,"tipoVenta":"P","horario":"L-D: 07:00-23:00","prices":{"GA":1.609,"G95E5":1.649,"G98E5":1.789,"GP":1.699}},{"id":"3418","name":"MOEVE","address":"AVENIDA ALCOY, S/N, MUTXAMEL","lat":38.426222,"lon":-0.449833,"tipoVenta":"P","horario":"L-D: 06:00-22:00","prices":{"GA":1.644,"G95E5":1.664,"G98E5":1.834,"GP":1.734,"GB":1.594}},{"id":"11920","name":"BP SANT PERET","address":"PARTIDA SAN PERET, 26, MUTXAMEL","lat":38.4245,"lon":-0.431389,"tipoVenta":"P","horario":"L-D: 06:00-22:00","prices":{"GA":1.609,"G95E5":1.649,"G98E5":1.789,"GP":1.699}},{"id":"1936","name":"BP","address":"POLIGONO SANTA FE C/1 ESQUINA C/2, 1,2, NOVELDA","lat":38.385639,"lon":-0.776833,"tipoVenta":"P","horario":"L-V: 06:00-22:00; S-D: 06:30-14:30","prices":{"GA":1.619,"G95E5":1.655,"GP":1.709}},{"id":"3569","name":"REPSOL","address":"AVENIDA PEREZ GALDOS, 2, NOVELDA","lat":38.386417,"lon":-0.758389,"tipoVenta":"P","horario":"L-S: 06:00-21:00; D: 07:00-15:00","prices":{"GA":1.645,"G95E5":1.675,"G98E5":1.845}},{"id":"3710","name":"BP","address":"AVENIDA RIO VINALOPO, 1, NOVELDA","lat":38.38825,"lon":-0.755694,"tipoVenta":"P","horario":"L-D: 06:00-23:00","prices":{"GA":1.599,"G95E5":1.665,"G98E5":1.795,"GP":1.699}},{"id":"16372","name":"+B ENERGIAS","address":"AVENIDA PEREZ GALDOS, 1, ESTACION (LA)","lat":38.387,"lon":-0.757972,"tipoVenta":"P","horario":"L-D: 24H","prices":{"ADBLUE":0.899,"GA":1.449,"G95E5":1.449,"GLP":0.897}},{"id":"3516","name":"BP INNUBEL - NOVELDA","address":"AVENIDA REYES CATOLICOS, 152, NOVELDA","lat":38.376333,"lon":-0.771333,"tipoVenta":"P","horario":"L-V: 06:00-22:00; S-D: 06:30-22:00","prices":{"GA":1.619,"G95E5":1.655,"G98E5":1.795,"GP":1.709}},{"id":"15903","name":"PETROPRIX","address":"AVENIDA JESUS NAVARRO, S/N, NOVELDA","lat":38.389111,"lon":-0.753,"tipoVenta":"P","horario":"L-D: 24H","prices":{"GA":1.499,"G95E5":1.479}},{"id":"14163","name":"PLENERGY","address":"AVENIDA MARINA BAIXA, 112, NUCIA (LA)","lat":38.6055,"lon":-0.129361,"tipoVenta":"P","horario":"L-D: 24H","prices":{"GA":1.479,"G95E5":1.559}},